<?xml version="1.0" standalone="yes"?>
<Airports>
  <Airport>
	<Location>
    <Code>VWS</Code>
    <City>Valdez</City>
    <State>AK</State>
	</Location>
	<Coordinates>
    <Latitude>61.13</Latitude>
    <Longitude>146.35</Longitude>
	</Coordinates>
  </Airport>
  <Airport>
	<Location>
    <Code>EKA</Code>
    <City>Eureka</City>
    <State>CA</State>
	</Location>
	<Coordinates>
    <Latitude>41.33</Latitude>
    <Longitude>124.28</Longitude>
	</Coordinates>
  </Airport>
  <Airport>
	<Location>
    <Code>SQI</Code>
    <City>Sterling</City>
    <State>IL</State>
	</Location>
	<Coordinates>
    <Latitude>41.74</Latitude>
    <Longitude>89.67</Longitude>
	</Coordinates>
  </Airport>
  <Airport>
	<Location>
    <Code>MGF</Code>
    <City>Dobbins AFB</City>
    <State>GA</State>
	</Location>
	<Coordinates>
    <Latitude>34.53</Latitude>
    <Longitude>84.87</Longitude>
	</Coordinates>
  </Airport>
  <Airport>
	<Location>
    <Code>HTL</Code>
    <City>Houghton Lake</City>
    <State>MI</State>
	</Location>
	<Coordinates>
    <Latitude>44.37</Latitude>
    <Longitude>84.68</Longitude>
	</Coordinates>
  </Airport>
  <Airport>
	<Location>
    <Code>MDW</Code>
    <City>Chicago/Midway</City>
    <State>IL</State>
	</Location>
	<Coordinates>
    <Latitude>41.78</Latitude>
    <Longitude>87.75</Longitude>
	</Coordinates>
  </Airport>
  <Airport>
	<Location>
    <Code>SDB</Code>
    <City>Sandburg</City>
    <State>CA</State>
	</Location>
	<Coordinates>
    <Latitude>34.75</Latitude>
    <Longitude>118.73</Longitude>
	</Coordinates>
  </Airport>
  <Airport>
	<Location>
    <Code>OTH</Code>
    <City>North Bend</City>
    <State>OR</State>
	</Location>
	<Coordinates>
    <Latitude>43.42</Latitude>
    <Longitude>124.25</Longitude>
	</Coordinates>
  </Airport>
  <Airport>
	<Location>
    <Code>SNY</Code>
    <City>Sidney Muni</City>
    <State>NE</State>
	</Location>
	<Coordinates>
    <Latitude>41.1</Latitude>
    <Longitude>102.98</Longitude>
	</Coordinates>
  </Airport>
  <Airport>
	<Location>
    <Code>OGG</Code>
    <City>Kahului Maui</City>
    <State>HI</State>
	</Location>
	<Coordinates>
    <Latitude>20.9</Latitude>
    <Longitude>156.43</Longitude>
	</Coordinates>
  </Airport>
  <Airport>
	<Location>
    <Code>CTB</Code>
    <City>Cut Bank</City>
    <State>MT</State>
	</Location>
	<Coordinates>
    <Latitude>48.6</Latitude>
    <Longitude>112.37</Longitude>
	</Coordinates>
  </Airport>
  <Airport>
	<Location>
    <Code>SHH</Code>
    <City>Shishmaref</City>
    <State>AK</State>
	</Location>
	<Coordinates>
    <Latitude>66.27</Latitude>
    <Longitude>166.03</Longitude>
	</Coordinates>
  </Airport>
  <Airport>
	<Location>
    <Code>LEB</Code>
    <City>Lebanon</City>
    <State>NH</State>
	</Location>
	<Coordinates>
    <Latitude>43.63</Latitude>
    <Longitude>72.3</Longitude>
	</Coordinates>
  </Airport>
  <Airport>
	<Location>
    <Code>GLS</Code>
    <City>Galveston</City>
    <State>TX</State>
	</Location>
	<Coordinates>
    <Latitude>29.27</Latitude>
    <Longitude>94.87</Longitude>
	</Coordinates>
  </Airport>
  <Airport>
	<Location>
    <Code>IND</Code>
    <City>Indianapolis</City>
    <State>IN</State>
	</Location>
	<Coordinates>
    <Latitude>39.73</Latitude>
    <Longitude>86.27</Longitude>
	</Coordinates>
  </Airport>
  <Airport>
	<Location>
    <Code>VCV</Code>
    <City>George AFB</City>
    <State>CA</State>
	</Location>
	<Coordinates>
    <Latitude>34.58</Latitude>
    <Longitude>117.38</Longitude>
	</Coordinates>
  </Airport>
  <Airport>
	<Location>
    <Code>BVY</Code>
    <City>Beverly</City>
    <State>MA</State>
	</Location>
	<Coordinates>
    <Latitude>42.58</Latitude>
    <Longitude>70.92</Longitude>
	</Coordinates>
  </Airport>
  <Airport>
	<Location>
    <Code>DYR</Code>
    <City>Dyersburg</City>
    <State>TN</State>
	</Location>
	<Coordinates>
    <Latitude>36.02</Latitude>
    <Longitude>89.4</Longitude>
	</Coordinates>
  </Airport>
  <Airport>
	<Location>
    <Code>BYI</Code>
    <City>Burley</City>
    <State>ID</State>
	</Location>
	<Coordinates>
    <Latitude>42.53</Latitude>
    <Longitude>113.77</Longitude>
	</Coordinates>
  </Airport>
  <Airport>
	<Location>
    <Code>AFN</Code>
    <City>Jaffrey</City>
    <State>NH</State>
	</Location>
	<Coordinates>
    <Latitude>42.8</Latitude>
    <Longitude>72</Longitude>
	</Coordinates>
  </Airport>
  <Airport>
	<Location>
    <Code>SMF</Code>
    <City>Sacramento</City>
    <State>CA</State>
	</Location>
	<Coordinates>
    <Latitude>38.7</Latitude>
    <Longitude>121.6</Longitude>
	</Coordinates>
  </Airport>
  <Airport>
	<Location>
    <Code>DUJ</Code>
    <City>Dubois</City>
    <State>PA</State>
	</Location>
	<Coordinates>
    <Latitude>41.18</Latitude>
    <Longitude>78.9</Longitude>
	</Coordinates>
  </Airport>
  <Airport>
	<Location>
    <Code>ERO</Code>
    <City>Eldred Rock</City>
    <State>AK</State>
	</Location>
	<Coordinates>
    <Latitude>59.62</Latitude>
    <Longitude>135.37</Longitude>
	</Coordinates>
  </Airport>
  <Airport>
	<Location>
    <Code>WDG</Code>
    <City>Enid</City>
    <State>OK</State>
	</Location>
	<Coordinates>
    <Latitude>36.38</Latitude>
    <Longitude>97.8</Longitude>
	</Coordinates>
  </Airport>
  <Airport>
	<Location>
    <Code>EKM</Code>
    <City>Elkhart</City>
    <State>IN</State>
	</Location>
	<Coordinates>
    <Latitude>41.72</Latitude>
    <Longitude>86</Longitude>
	</Coordinates>
  </Airport>
  <Airport>
	<Location>
    <Code>GMU</Code>
    <City>Greenville</City>
    <State>SC</State>
	</Location>
	<Coordinates>
    <Latitude>34.85</Latitude>
    <Longitude>82.35</Longitude>
	</Coordinates>
  </Airport>
  <Airport>
	<Location>
    <Code>NPA</Code>
    <City>Pensacola</City>
    <State>FL</State>
	</Location>
	<Coordinates>
    <Latitude>30.35</Latitude>
    <Longitude>87.32</Longitude>
	</Coordinates>
  </Airport>
  <Airport>
	<Location>
    <Code>BGR</Code>
    <City>Bangor</City>
    <State>ME</State>
	</Location>
	<Coordinates>
    <Latitude>44.8</Latitude>
    <Longitude>68.82</Longitude>
	</Coordinates>
  </Airport>
  <Airport>
	<Location>
    <Code>WRI</Code>
    <City>Mcguire AFB</City>
    <State>NJ</State>
	</Location>
	<Coordinates>
    <Latitude>40.02</Latitude>
    <Longitude>74.6</Longitude>
	</Coordinates>
  </Airport>
  <Airport>
	<Location>
    <Code>FAF</Code>
    <City>Fort Eustis</City>
    <State>VA</State>
	</Location>
	<Coordinates>
    <Latitude>37.13</Latitude>
    <Longitude>76.62</Longitude>
	</Coordinates>
  </Airport>
  <Airport>
	<Location>
    <Code>BTM</Code>
    <City>Butte</City>
    <State>MT</State>
	</Location>
	<Coordinates>
    <Latitude>45.95</Latitude>
    <Longitude>112.5</Longitude>
	</Coordinates>
  </Airport>
  <Airport>
	<Location>
    <Code>CEF</Code>
    <City>Westover</City>
    <State>MA</State>
	</Location>
	<Coordinates>
    <Latitude>42.2</Latitude>
    <Longitude>72.53</Longitude>
	</Coordinates>
  </Airport>
  <Airport>
	<Location>
    <Code>NBU</Code>
    <City>Glenview NAS</City>
    <State>IL</State>
	</Location>
	<Coordinates>
    <Latitude>42.08</Latitude>
    <Longitude>87.82</Longitude>
	</Coordinates>
  </Airport>
  <Airport>
	<Location>
    <Code>PSC</Code>
    <City>Pasco</City>
    <State>WA</State>
	</Location>
	<Coordinates>
    <Latitude>46.27</Latitude>
    <Longitude>119.12</Longitude>
	</Coordinates>
  </Airport>
  <Airport>
	<Location>
    <Code>BLF</Code>
    <City>Bluefield</City>
    <State>WV</State>
	</Location>
	<Coordinates>
    <Latitude>37.3</Latitude>
    <Longitude>81.22</Longitude>
	</Coordinates>
  </Airport>
  <Airport>
	<Location>
    <Code>NTU</Code>
    <City>Oceana NAS</City>
    <State>VA</State>
	</Location>
	<Coordinates>
    <Latitude>36.82</Latitude>
    <Longitude>76.03</Longitude>
	</Coordinates>
  </Airport>
  <Airport>
	<Location>
    <Code>BOI</Code>
    <City>Boise</City>
    <State>ID</State>
	</Location>
	<Coordinates>
    <Latitude>43.57</Latitude>
    <Longitude>116.22</Longitude>
	</Coordinates>
  </Airport>
  <Airport>
	<Location>
    <Code>PBF</Code>
    <City>Pine Bluff</City>
    <State>AR</State>
	</Location>
	<Coordinates>
    <Latitude>34.17</Latitude>
    <Longitude>91.93</Longitude>
	</Coordinates>
  </Airport>
  <Airport>
	<Location>
    <Code>DBQ</Code>
    <City>Dubuque</City>
    <State>IA</State>
	</Location>
	<Coordinates>
    <Latitude>42.4</Latitude>
    <Longitude>90.7</Longitude>
	</Coordinates>
  </Airport>
  <Airport>
	<Location>
    <Code>SIL</Code>
    <City>Slidel</City>
    <State>LA</State>
	</Location>
	<Coordinates>
    <Latitude>30.35</Latitude>
    <Longitude>89.82</Longitude>
	</Coordinates>
  </Airport>
  <Airport>
	<Location>
    <Code>OLM</Code>
    <City>Olympia</City>
    <State>WA</State>
	</Location>
	<Coordinates>
    <Latitude>46.97</Latitude>
    <Longitude>122.9</Longitude>
	</Coordinates>
  </Airport>
  <Airport>
	<Location>
    <Code>DNV</Code>
    <City>Danville</City>
    <State>IL</State>
	</Location>
	<Coordinates>
    <Latitude>40.2</Latitude>
    <Longitude>87.6</Longitude>
	</Coordinates>
  </Airport>
  <Airport>
	<Location>
    <Code>IMT</Code>
    <City>Iron Mtn</City>
    <State>MI</State>
	</Location>
	<Coordinates>
    <Latitude>45.82</Latitude>
    <Longitude>88.12</Longitude>
	</Coordinates>
  </Airport>
  <Airport>
	<Location>
    <Code>HQM</Code>
    <City>Hoquiam</City>
    <State>WA</State>
	</Location>
	<Coordinates>
    <Latitude>46.97</Latitude>
    <Longitude>123.97</Longitude>
	</Coordinates>
  </Airport>
  <Airport>
	<Location>
    <Code>LFT</Code>
    <City>Lafayette</City>
    <State>LA</State>
	</Location>
	<Coordinates>
    <Latitude>30.2</Latitude>
    <Longitude>92</Longitude>
	</Coordinates>
  </Airport>
  <Airport>
	<Location>
    <Code>OSU</Code>
    <City>Columbus Osu</City>
    <State>OH</State>
	</Location>
	<Coordinates>
    <Latitude>40.08</Latitude>
    <Longitude>83.07</Longitude>
	</Coordinates>
  </Airport>
  <Airport>
	<Location>
    <Code>PAM</Code>
    <City>Tyndall AFB</City>
    <State>FL</State>
	</Location>
	<Coordinates>
    <Latitude>30.07</Latitude>
    <Longitude>85.58</Longitude>
	</Coordinates>
  </Airport>
  <Airport>
	<Location>
    <Code>HUT</Code>
    <City>Hutchinson</City>
    <State>KS</State>
	</Location>
	<Coordinates>
    <Latitude>38.07</Latitude>
    <Longitude>97.87</Longitude>
	</Coordinates>
  </Airport>
  <Airport>
	<Location>
    <Code>CEW</Code>
    <City>Crestview</City>
    <State>FL</State>
	</Location>
	<Coordinates>
    <Latitude>30.78</Latitude>
    <Longitude>86.52</Longitude>
	</Coordinates>
  </Airport>
  <Airport>
	<Location>
    <Code>PAE</Code>
    <City>Everet/Paine</City>
    <State>WA</State>
	</Location>
	<Coordinates>
    <Latitude>47.92</Latitude>
    <Longitude>122.28</Longitude>
	</Coordinates>
  </Airport>
  <Airport>
	<Location>
    <Code>NMM</Code>
    <City>Meridian NAS</City>
    <State>MS</State>
	</Location>
	<Coordinates>
    <Latitude>32.55</Latitude>
    <Longitude>88.57</Longitude>
	</Coordinates>
  </Airport>
  <Airport>
	<Location>
    <Code>AMA</Code>
    <City>Amarillo</City>
    <State>TX</State>
	</Location>
	<Coordinates>
    <Latitude>35.23</Latitude>
    <Longitude>101.7</Longitude>
	</Coordinates>
  </Airport>
  <Airport>
	<Location>
    <Code>AGS</Code>
    <City>Augusta/Bush</City>
    <State>GA</State>
	</Location>
	<Coordinates>
    <Latitude>33.37</Latitude>
    <Longitude>81.97</Longitude>
	</Coordinates>
  </Airport>
  <Airport>
	<Location>
    <Code>RKS</Code>
    <City>Rock Springs</City>
    <State>WY</State>
	</Location>
	<Coordinates>
    <Latitude>41.6</Latitude>
    <Longitude>109.07</Longitude>
	</Coordinates>
  </Airport>
  <Airport>
	<Location>
    <Code>AOO</Code>
    <City>Altoona</City>
    <State>PA</State>
	</Location>
	<Coordinates>
    <Latitude>40.3</Latitude>
    <Longitude>78.32</Longitude>
	</Coordinates>
  </Airport>
  <Airport>
	<Location>
    <Code>CBM</Code>
    <City>Columbus AFB</City>
    <State>MS</State>
	</Location>
	<Coordinates>
    <Latitude>33.65</Latitude>
    <Longitude>88.45</Longitude>
	</Coordinates>
  </Airport>
  <Airport>
	<Location>
    <Code>SDM</Code>
    <City>San Diego</City>
    <State>CA</State>
	</Location>
	<Coordinates>
    <Latitude>32.57</Latitude>
    <Longitude>116.98</Longitude>
	</Coordinates>
  </Airport>
  <Airport>
	<Location>
    <Code>DIK</Code>
    <City>Dickenson</City>
    <State>ND</State>
	</Location>
	<Coordinates>
    <Latitude>46.78</Latitude>
    <Longitude>102.8</Longitude>
	</Coordinates>
  </Airport>
  <Airport>
	<Location>
    <Code>WRL</Code>
    <City>Worland</City>
    <State>WY</State>
	</Location>
	<Coordinates>
    <Latitude>43.97</Latitude>
    <Longitude>107.97</Longitude>
	</Coordinates>
  </Airport>
  <Airport>
	<Location>
    <Code>FKL</Code>
    <City>Franklin</City>
    <State>PA</State>
	</Location>
	<Coordinates>
    <Latitude>41.38</Latitude>
    <Longitude>79.87</Longitude>
	</Coordinates>
  </Airport>
  <Airport>
	<Location>
    <Code>MEI</Code>
    <City>Meridian/Key</City>
    <State>MS</State>
	</Location>
	<Coordinates>
    <Latitude>32.33</Latitude>
    <Longitude>88.75</Longitude>
	</Coordinates>
  </Airport>
  <Airport>
	<Location>
    <Code>PBI</Code>
    <City>WPalm Beach</City>
    <State>FL</State>
	</Location>
	<Coordinates>
    <Latitude>26.68</Latitude>
    <Longitude>80.12</Longitude>
	</Coordinates>
  </Airport>
  <Airport>
	<Location>
    <Code>NKT</Code>
    <City>Cherry Point</City>
    <State>NC</State>
	</Location>
	<Coordinates>
    <Latitude>34.9</Latitude>
    <Longitude>76.88</Longitude>
	</Coordinates>
  </Airport>
  <Airport>
	<Location>
    <Code>GAM</Code>
    <City>Gambell</City>
    <State>AK</State>
	</Location>
	<Coordinates>
    <Latitude>63.77</Latitude>
    <Longitude>171.73</Longitude>
	</Coordinates>
  </Airport>
  <Airport>
	<Location>
    <Code>ACK</Code>
    <City>Nantucket</City>
    <State>MA</State>
	</Location>
	<Coordinates>
    <Latitude>41.25</Latitude>
    <Longitude>70.07</Longitude>
	</Coordinates>
  </Airport>
  <Airport>
	<Location>
    <Code>LVS</Code>
    <City>Las Vegas</City>
    <State>NM</State>
	</Location>
	<Coordinates>
    <Latitude>35.65</Latitude>
    <Longitude>105.15</Longitude>
	</Coordinates>
  </Airport>
  <Airport>
	<Location>
    <Code>SLO</Code>
    <City>Salem</City>
    <State>IL</State>
	</Location>
	<Coordinates>
    <Latitude>38.63</Latitude>
    <Longitude>88.96</Longitude>
	</Coordinates>
  </Airport>
  <Airport>
	<Location>
    <Code>STJ</Code>
    <City>St Joseph</City>
    <State>MO</State>
	</Location>
	<Coordinates>
    <Latitude>40.28</Latitude>
    <Longitude>95.53</Longitude>
	</Coordinates>
  </Airport>
  <Airport>
	<Location>
    <Code>NHK</Code>
    <City>Patuxent</City>
    <State>MD</State>
	</Location>
	<Coordinates>
    <Latitude>38.28</Latitude>
    <Longitude>76.4</Longitude>
	</Coordinates>
  </Airport>
  <Airport>
	<Location>
    <Code>CMI</Code>
    <City>Champaign/Urbana</City>
    <State>IL</State>
	</Location>
	<Coordinates>
    <Latitude>40.03</Latitude>
    <Longitude>88.28</Longitude>
	</Coordinates>
  </Airport>
  <Airport>
	<Location>
    <Code>AZO</Code>
    <City>Kalamazoo</City>
    <State>MI</State>
	</Location>
	<Coordinates>
    <Latitude>42.23</Latitude>
    <Longitude>85.55</Longitude>
	</Coordinates>
  </Airport>
  <Airport>
	<Location>
    <Code>BPI</Code>
    <City>Big Piney</City>
    <State>WY</State>
	</Location>
	<Coordinates>
    <Latitude>42.57</Latitude>
    <Longitude>110.1</Longitude>
	</Coordinates>
  </Airport>
  <Airport>
	<Location>
    <Code>HOB</Code>
    <City>Hobbs</City>
    <State>NM</State>
	</Location>
	<Coordinates>
    <Latitude>32.68</Latitude>
    <Longitude>103.2</Longitude>
	</Coordinates>
  </Airport>
  <Airport>
	<Location>
    <Code>LNK</Code>
    <City>Lincoln Muni</City>
    <State>NE</State>
	</Location>
	<Coordinates>
    <Latitude>40.85</Latitude>
    <Longitude>96.75</Longitude>
	</Coordinates>
  </Airport>
  <Airport>
	<Location>
    <Code>MLS</Code>
    <City>Miles City</City>
    <State>MT</State>
	</Location>
	<Coordinates>
    <Latitude>46.43</Latitude>
    <Longitude>105.87</Longitude>
	</Coordinates>
  </Airport>
  <Airport>
	<Location>
    <Code>ERI</Code>
    <City>Erie</City>
    <State>PA</State>
	</Location>
	<Coordinates>
    <Latitude>42.08</Latitude>
    <Longitude>80.18</Longitude>
	</Coordinates>
  </Airport>
  <Airport>
	<Location>
    <Code>PTH</Code>
    <City>Port Heiden</City>
    <State>AK</State>
	</Location>
	<Coordinates>
    <Latitude>56.95</Latitude>
    <Longitude>158.62</Longitude>
	</Coordinates>
  </Airport>
  <Airport>
	<Location>
    <Code>CDC</Code>
    <City>Cedar City</City>
    <State>UT</State>
	</Location>
	<Coordinates>
    <Latitude>37.7</Latitude>
    <Longitude>113.1</Longitude>
	</Coordinates>
  </Airport>
  <Airport>
	<Location>
    <Code>FFM</Code>
    <City>Fergus Falls</City>
    <State>MN</State>
	</Location>
	<Coordinates>
    <Latitude>46.3</Latitude>
    <Longitude>96.07</Longitude>
	</Coordinates>
  </Airport>
  <Airport>
	<Location>
    <Code>DCA</Code>
    <City>Washington/Reagan</City>
    <State>DC</State>
	</Location>
	<Coordinates>
    <Latitude>38.85</Latitude>
    <Longitude>77.04</Longitude>
	</Coordinates>
  </Airport>
  <Airport>
	<Location>
    <Code>YAK</Code>
    <City>Yakutat</City>
    <State>AK</State>
	</Location>
	<Coordinates>
    <Latitude>59.52</Latitude>
    <Longitude>139.67</Longitude>
	</Coordinates>
  </Airport>
  <Airport>
	<Location>
    <Code>ROC</Code>
    <City>Rochester</City>
    <State>NY</State>
	</Location>
	<Coordinates>
    <Latitude>43.12</Latitude>
    <Longitude>77.67</Longitude>
	</Coordinates>
  </Airport>
  <Airport>
	<Location>
    <Code>AUG</Code>
    <City>Augusta</City>
    <State>ME</State>
	</Location>
	<Coordinates>
    <Latitude>44.32</Latitude>
    <Longitude>69.8</Longitude>
	</Coordinates>
  </Airport>
  <Airport>
	<Location>
    <Code>CNK</Code>
    <City>Concordia</City>
    <State>KS</State>
	</Location>
	<Coordinates>
    <Latitude>39.55</Latitude>
    <Longitude>97.65</Longitude>
	</Coordinates>
  </Airport>
  <Airport>
	<Location>
    <Code>PIB</Code>
    <City>Hattiesburg</City>
    <State>MS</State>
	</Location>
	<Coordinates>
    <Latitude>31.47</Latitude>
    <Longitude>89.33</Longitude>
	</Coordinates>
  </Airport>
  <Airport>
	<Location>
    <Code>TAD</Code>
    <City>Trinidad</City>
    <State>CO</State>
	</Location>
	<Coordinates>
    <Latitude>37.25</Latitude>
    <Longitude>104.33</Longitude>
	</Coordinates>
  </Airport>
  <Airport>
	<Location>
    <Code>SPA</Code>
    <City>Spartanburg</City>
    <State>SC</State>
	</Location>
	<Coordinates>
    <Latitude>34.92</Latitude>
    <Longitude>81.96</Longitude>
	</Coordinates>
  </Airport>
  <Airport>
	<Location>
    <Code>CRW</Code>
    <City>Charleston</City>
    <State>WV</State>
	</Location>
	<Coordinates>
    <Latitude>38.37</Latitude>
    <Longitude>81.6</Longitude>
	</Coordinates>
  </Airport>
  <Airport>
	<Location>
    <Code>VCT</Code>
    <City>Victoria</City>
    <State>TX</State>
	</Location>
	<Coordinates>
    <Latitude>28.85</Latitude>
    <Longitude>96.92</Longitude>
	</Coordinates>
  </Airport>
  <Airport>
	<Location>
    <Code>HIF</Code>
    <City>Hill AFB</City>
    <State>UT</State>
	</Location>
	<Coordinates>
    <Latitude>41.12</Latitude>
    <Longitude>111.97</Longitude>
	</Coordinates>
  </Airport>
  <Airport>
	<Location>
    <Code>RAP</Code>
    <City>Rapid City</City>
    <State>SD</State>
	</Location>
	<Coordinates>
    <Latitude>44.05</Latitude>
    <Longitude>103.07</Longitude>
	</Coordinates>
  </Airport>
  <Airport>
	<Location>
    <Code>ATW</Code>
    <City>Appleton</City>
    <State>WI</State>
	</Location>
	<Coordinates>
    <Latitude>44.25</Latitude>
    <Longitude>88.52</Longitude>
	</Coordinates>
  </Airport>
  <Airport>
	<Location>
    <Code>DVL</Code>
    <City>Devil's Lake</City>
    <State>ND</State>
	</Location>
	<Coordinates>
    <Latitude>48.12</Latitude>
    <Longitude>98.9</Longitude>
	</Coordinates>
  </Airport>
  <Airport>
	<Location>
    <Code>SEE</Code>
    <City>San Diego</City>
    <State>CA</State>
	</Location>
	<Coordinates>
    <Latitude>32.82</Latitude>
    <Longitude>116.97</Longitude>
	</Coordinates>
  </Airport>
  <Airport>
	<Location>
    <Code>HSS</Code>
    <City>Hot Springs</City>
    <State>NC</State>
	</Location>
	<Coordinates>
    <Latitude>35.9</Latitude>
    <Longitude>82.82</Longitude>
	</Coordinates>
  </Airport>
  <Airport>
	<Location>
    <Code>SVC</Code>
    <City>Silver City</City>
    <State>NM</State>
	</Location>
	<Coordinates>
    <Latitude>32.63</Latitude>
    <Longitude>108.17</Longitude>
	</Coordinates>
  </Airport>
  <Airport>
	<Location>
    <Code>HWD</Code>
    <City>Hayward</City>
    <State>CA</State>
	</Location>
	<Coordinates>
    <Latitude>37.65</Latitude>
    <Longitude>122.12</Longitude>
	</Coordinates>
  </Airport>
  <Airport>
	<Location>
    <Code>NUQ</Code>
    <City>Moffet NAS</City>
    <State>CA</State>
	</Location>
	<Coordinates>
    <Latitude>37.42</Latitude>
    <Longitude>122.05</Longitude>
	</Coordinates>
  </Airport>
  <Airport>
	<Location>
    <Code>HRO</Code>
    <City>Harrison</City>
    <State>AR</State>
	</Location>
	<Coordinates>
    <Latitude>36.27</Latitude>
    <Longitude>93.15</Longitude>
	</Coordinates>
  </Airport>
  <Airport>
	<Location>
    <Code>CON</Code>
    <City>Concord</City>
    <State>NH</State>
	</Location>
	<Coordinates>
    <Latitude>43.2</Latitude>
    <Longitude>71.5</Longitude>
	</Coordinates>
  </Airport>
  <Airport>
	<Location>
    <Code>SLI</Code>
    <City>Los Alamitos</City>
    <State>CA</State>
	</Location>
	<Coordinates>
    <Latitude>33.78</Latitude>
    <Longitude>118.05</Longitude>
	</Coordinates>
  </Airport>
  <Airport>
	<Location>
    <Code>WAL</Code>
    <City>Wallops Sta</City>
    <State>VA</State>
	</Location>
	<Coordinates>
    <Latitude>37.85</Latitude>
    <Longitude>75.48</Longitude>
	</Coordinates>
  </Airport>
  <Airport>
	<Location>
    <Code>UCA</Code>
    <City>Utica</City>
    <State>NY</State>
	</Location>
	<Coordinates>
    <Latitude>43.15</Latitude>
    <Longitude>75.38</Longitude>
	</Coordinates>
  </Airport>
  <Airport>
	<Location>
    <Code>LVK</Code>
    <City>Livermore</City>
    <State>CA</State>
	</Location>
	<Coordinates>
    <Latitude>37.7</Latitude>
    <Longitude>121.82</Longitude>
	</Coordinates>
  </Airport>
  <Airport>
	<Location>
    <Code>MIC</Code>
    <City>Minneapolis</City>
    <State>MN</State>
	</Location>
	<Coordinates>
    <Latitude>45.07</Latitude>
    <Longitude>93.38</Longitude>
	</Coordinates>
  </Airport>
  <Airport>
	<Location>
    <Code>SPI</Code>
    <City>Springfield</City>
    <State>IL</State>
	</Location>
	<Coordinates>
    <Latitude>39.85</Latitude>
    <Longitude>89.67</Longitude>
	</Coordinates>
  </Airport>
  <Airport>
	<Location>
    <Code>PVU</Code>
    <City>Provo</City>
    <State>UT</State>
	</Location>
	<Coordinates>
    <Latitude>40.22</Latitude>
    <Longitude>111.72</Longitude>
	</Coordinates>
  </Airport>
  <Airport>
	<Location>
    <Code>BTT</Code>
    <City>Bettles</City>
    <State>AK</State>
	</Location>
	<Coordinates>
    <Latitude>66.92</Latitude>
    <Longitude>151.52</Longitude>
	</Coordinates>
  </Airport>
  <Airport>
	<Location>
    <Code>CSM</Code>
    <City>Clinton</City>
    <State>OK</State>
	</Location>
	<Coordinates>
    <Latitude>35.35</Latitude>
    <Longitude>99.2</Longitude>
	</Coordinates>
  </Airport>
  <Airport>
	<Location>
    <Code>RDG</Code>
    <City>Reading</City>
    <State>PA</State>
	</Location>
	<Coordinates>
    <Latitude>40.38</Latitude>
    <Longitude>75.97</Longitude>
	</Coordinates>
  </Airport>
  <Airport>
	<Location>
    <Code>ONP</Code>
    <City>Newport</City>
    <State>OR</State>
	</Location>
	<Coordinates>
    <Latitude>44.63</Latitude>
    <Longitude>124.05</Longitude>
	</Coordinates>
  </Airport>
  <Airport>
	<Location>
    <Code>COE</Code>
    <City>Coeur D'Alene</City>
    <State>ID</State>
	</Location>
	<Coordinates>
    <Latitude>47.77</Latitude>
    <Longitude>116.82</Longitude>
	</Coordinates>
  </Airport>
  <Airport>
	<Location>
    <Code>SSF</Code>
    <City>San Antonio</City>
    <State>TX</State>
	</Location>
	<Coordinates>
    <Latitude>29.33</Latitude>
    <Longitude>98.47</Longitude>
	</Coordinates>
  </Airport>
  <Airport>
	<Location>
    <Code>FMH</Code>
    <City>Otis ANGB</City>
    <State>MA</State>
	</Location>
	<Coordinates>
    <Latitude>41.65</Latitude>
    <Longitude>70.52</Longitude>
	</Coordinates>
  </Airport>
  <Airport>
	<Location>
    <Code>GDV</Code>
    <City>Glendive</City>
    <State>MT</State>
	</Location>
	<Coordinates>
    <Latitude>47.13</Latitude>
    <Longitude>104.8</Longitude>
	</Coordinates>
  </Airport>
  <Airport>
	<Location>
    <Code>MEH</Code>
    <City>Meacham</City>
    <State>OR</State>
	</Location>
	<Coordinates>
    <Latitude>45.5</Latitude>
    <Longitude>118.4</Longitude>
	</Coordinates>
  </Airport>
  <Airport>
	<Location>
    <Code>GLH</Code>
    <City>Greenville</City>
    <State>MS</State>
	</Location>
	<Coordinates>
    <Latitude>33.48</Latitude>
    <Longitude>90.98</Longitude>
	</Coordinates>
  </Airport>
  <Airport>
	<Location>
    <Code>ABY</Code>
    <City>Albany</City>
    <State>GA</State>
	</Location>
	<Coordinates>
    <Latitude>31.53</Latitude>
    <Longitude>84.18</Longitude>
	</Coordinates>
  </Airport>
  <Airport>
	<Location>
    <Code>EGE</Code>
    <City>Eagle</City>
    <State>CO</State>
	</Location>
	<Coordinates>
    <Latitude>39.65</Latitude>
    <Longitude>106.92</Longitude>
	</Coordinates>
  </Airport>
  <Airport>
	<Location>
    <Code>HOM</Code>
    <City>Homer</City>
    <State>AK</State>
	</Location>
	<Coordinates>
    <Latitude>59.63</Latitude>
    <Longitude>151.5</Longitude>
	</Coordinates>
  </Airport>
  <Airport>
	<Location>
    <Code>RUM</Code>
    <City>Rumford</City>
    <State>ME</State>
	</Location>
	<Coordinates>
    <Latitude>44.88</Latitude>
    <Longitude>70.88</Longitude>
	</Coordinates>
  </Airport>
  <Airport>
	<Location>
    <Code>MSN</Code>
    <City>Madison</City>
    <State>WI</State>
	</Location>
	<Coordinates>
    <Latitude>43.13</Latitude>
    <Longitude>89.33</Longitude>
	</Coordinates>
  </Airport>
  <Airport>
	<Location>
    <Code>ATY</Code>
    <City>Watertown</City>
    <State>SD</State>
	</Location>
	<Coordinates>
    <Latitude>44.92</Latitude>
    <Longitude>97.15</Longitude>
	</Coordinates>
  </Airport>
  <Airport>
	<Location>
    <Code>LGB</Code>
    <City>Long Beach</City>
    <State>CA</State>
	</Location>
	<Coordinates>
    <Latitude>33.82</Latitude>
    <Longitude>118.15</Longitude>
	</Coordinates>
  </Airport>
  <Airport>
	<Location>
    <Code>PSM</Code>
    <City>Pease AFB</City>
    <State>NH</State>
	</Location>
	<Coordinates>
    <Latitude>43.08</Latitude>
    <Longitude>70.82</Longitude>
	</Coordinates>
  </Airport>
  <Airport>
	<Location>
    <Code>FMY</Code>
    <City>Fort Myers</City>
    <State>FL</State>
	</Location>
	<Coordinates>
    <Latitude>26.58</Latitude>
    <Longitude>81.87</Longitude>
	</Coordinates>
  </Airport>
  <Airport>
	<Location>
    <Code>SMP</Code>
    <City>Stampede</City>
    <State>WA</State>
	</Location>
	<Coordinates>
    <Latitude>47.28</Latitude>
    <Longitude>121.33</Longitude>
	</Coordinates>
  </Airport>
  <Airport>
	<Location>
    <Code>LYH</Code>
    <City>Lynchburg</City>
    <State>VA</State>
	</Location>
	<Coordinates>
    <Latitude>37.33</Latitude>
    <Longitude>79.2</Longitude>
	</Coordinates>
  </Airport>
  <Airport>
	<Location>
    <Code>APA</Code>
    <City>Englewood</City>
    <State>CO</State>
	</Location>
	<Coordinates>
    <Latitude>39.57</Latitude>
    <Longitude>104.83</Longitude>
	</Coordinates>
  </Airport>
  <Airport>
	<Location>
    <Code>HSP</Code>
    <City>Hot Springs</City>
    <State>VA</State>
	</Location>
	<Coordinates>
    <Latitude>37.95</Latitude>
    <Longitude>79.82</Longitude>
	</Coordinates>
  </Airport>
  <Airport>
	<Location>
    <Code>EKN</Code>
    <City>Elkins</City>
    <State>WV</State>
	</Location>
	<Coordinates>
    <Latitude>38.88</Latitude>
    <Longitude>79.85</Longitude>
	</Coordinates>
  </Airport>
  <Airport>
	<Location>
    <Code>PHP</Code>
    <City>Philip</City>
    <State>SD</State>
	</Location>
	<Coordinates>
    <Latitude>44.05</Latitude>
    <Longitude>101.6</Longitude>
	</Coordinates>
  </Airport>
  <Airport>
	<Location>
    <Code>LGD</Code>
    <City>La Grande</City>
    <State>OR</State>
	</Location>
	<Coordinates>
    <Latitude>45.28</Latitude>
    <Longitude>118</Longitude>
	</Coordinates>
  </Airport>
  <Airport>
	<Location>
    <Code>HHR</Code>
    <City>Hawthorne</City>
    <State>CA</State>
	</Location>
	<Coordinates>
    <Latitude>33.92</Latitude>
    <Longitude>118.33</Longitude>
	</Coordinates>
  </Airport>
  <Airport>
	<Location>
    <Code>VEL</Code>
    <City>Vernal</City>
    <State>UT</State>
	</Location>
	<Coordinates>
    <Latitude>40.45</Latitude>
    <Longitude>109.52</Longitude>
	</Coordinates>
  </Airport>
  <Airport>
	<Location>
    <Code>TUL</Code>
    <City>Tulsa</City>
    <State>OK</State>
	</Location>
	<Coordinates>
    <Latitude>36.2</Latitude>
    <Longitude>95.9</Longitude>
	</Coordinates>
  </Airport>
  <Airport>
	<Location>
    <Code>MKC</Code>
    <City>Kansas City</City>
    <State>MO</State>
	</Location>
	<Coordinates>
    <Latitude>39.12</Latitude>
    <Longitude>94.6</Longitude>
	</Coordinates>
  </Airport>
  <Airport>
	<Location>
    <Code>FNB</Code>
    <City>Falls City</City>
    <State>NE</State>
	</Location>
	<Coordinates>
    <Latitude>40.07</Latitude>
    <Longitude>95.58</Longitude>
	</Coordinates>
  </Airport>
  <Airport>
	<Location>
    <Code>EST</Code>
    <City>Estherville</City>
    <State>IA</State>
	</Location>
	<Coordinates>
    <Latitude>43.4</Latitude>
    <Longitude>94.75</Longitude>
	</Coordinates>
  </Airport>
  <Airport>
	<Location>
    <Code>AWH</Code>
    <City>Wildhorse</City>
    <State>NV</State>
	</Location>
	<Coordinates>
    <Latitude>41.33</Latitude>
    <Longitude>116.25</Longitude>
	</Coordinates>
  </Airport>
  <Airport>
	<Location>
    <Code>VLA</Code>
    <City>Vandalia</City>
    <State>IL</State>
	</Location>
	<Coordinates>
    <Latitude>38.99</Latitude>
    <Longitude>89.17</Longitude>
	</Coordinates>
  </Airport>
  <Airport>
	<Location>
    <Code>ANI</Code>
    <City>Aniak</City>
    <State>AK</State>
	</Location>
	<Coordinates>
    <Latitude>61.58</Latitude>
    <Longitude>159.53</Longitude>
	</Coordinates>
  </Airport>
  <Airport>
	<Location>
    <Code>SAV</Code>
    <City>Savannah Mun</City>
    <State>GA</State>
	</Location>
	<Coordinates>
    <Latitude>32.13</Latitude>
    <Longitude>81.2</Longitude>
	</Coordinates>
  </Airport>
  <Airport>
	<Location>
    <Code>RIV</Code>
    <City>March AFB</City>
    <State>CA</State>
	</Location>
	<Coordinates>
    <Latitude>33.88</Latitude>
    <Longitude>117.27</Longitude>
	</Coordinates>
  </Airport>
  <Airport>
	<Location>
    <Code>FLL</Code>
    <City>Ft Lauderdale</City>
    <State>FL</State>
	</Location>
	<Coordinates>
    <Latitude>26.07</Latitude>
    <Longitude>80.15</Longitude>
	</Coordinates>
  </Airport>
  <Airport>
	<Location>
    <Code>ENA</Code>
    <City>Kenai</City>
    <State>AK</State>
	</Location>
	<Coordinates>
    <Latitude>60.57</Latitude>
    <Longitude>151.25</Longitude>
	</Coordinates>
  </Airport>
  <Airport>
	<Location>
    <Code>ELP</Code>
    <City>El Paso</City>
    <State>TX</State>
	</Location>
	<Coordinates>
    <Latitude>31.8</Latitude>
    <Longitude>106.4</Longitude>
	</Coordinates>
  </Airport>
  <Airport>
	<Location>
    <Code>SFO</Code>
    <City>San Francisco</City>
    <State>CA</State>
	</Location>
	<Coordinates>
    <Latitude>37.62</Latitude>
    <Longitude>122.38</Longitude>
	</Coordinates>
  </Airport>
  <Airport>
	<Location>
    <Code>RKD</Code>
    <City>Rockland</City>
    <State>ME</State>
	</Location>
	<Coordinates>
    <Latitude>44.07</Latitude>
    <Longitude>69.12</Longitude>
	</Coordinates>
  </Airport>
  <Airport>
	<Location>
    <Code>EWN</Code>
    <City>New Bern</City>
    <State>NC</State>
	</Location>
	<Coordinates>
    <Latitude>35.08</Latitude>
    <Longitude>77.05</Longitude>
	</Coordinates>
  </Airport>
  <Airport>
	<Location>
    <Code>ROA</Code>
    <City>Roanoke Muni</City>
    <State>VA</State>
	</Location>
	<Coordinates>
    <Latitude>37.32</Latitude>
    <Longitude>79.97</Longitude>
	</Coordinates>
  </Airport>
  <Airport>
	<Location>
    <Code>EVW</Code>
    <City>Evanston</City>
    <State>WY</State>
	</Location>
	<Coordinates>
    <Latitude>41.33</Latitude>
    <Longitude>111</Longitude>
	</Coordinates>
  </Airport>
  <Airport>
	<Location>
    <Code>REJ</Code>
    <City>Redig</City>
    <State>SD</State>
	</Location>
	<Coordinates>
    <Latitude>45.16</Latitude>
    <Longitude>103.32</Longitude>
	</Coordinates>
  </Airport>
  <Airport>
	<Location>
    <Code>NYL</Code>
    <City>Yuma Mcas</City>
    <State>AZ</State>
	</Location>
	<Coordinates>
    <Latitude>32.65</Latitude>
    <Longitude>114.62</Longitude>
	</Coordinates>
  </Airport>
  <Airport>
	<Location>
    <Code>CRP</Code>
    <City>Corpus Christi</City>
    <State>TX</State>
	</Location>
	<Coordinates>
    <Latitude>27.77</Latitude>
    <Longitude>97.5</Longitude>
	</Coordinates>
  </Airport>
  <Airport>
	<Location>
    <Code>GRB</Code>
    <City>Green Bay</City>
    <State>WI</State>
	</Location>
	<Coordinates>
    <Latitude>44.48</Latitude>
    <Longitude>88.13</Longitude>
	</Coordinates>
  </Airport>
  <Airport>
	<Location>
    <Code>BLV</Code>
    <City>Scott AFB</City>
    <State>IL</State>
	</Location>
	<Coordinates>
    <Latitude>38.55</Latitude>
    <Longitude>89.85</Longitude>
	</Coordinates>
  </Airport>
  <Airport>
	<Location>
    <Code>SKA</Code>
    <City>Fairchild</City>
    <State>WA</State>
	</Location>
	<Coordinates>
    <Latitude>47.62</Latitude>
    <Longitude>117.65</Longitude>
	</Coordinates>
  </Airport>
  <Airport>
	<Location>
    <Code>ADS</Code>
    <City>Dallas/Addis</City>
    <State>TX</State>
	</Location>
	<Coordinates>
    <Latitude>32.97</Latitude>
    <Longitude>96.83</Longitude>
	</Coordinates>
  </Airport>
  <Airport>
	<Location>
    <Code>LGC</Code>
    <City>La Grange</City>
    <State>GA</State>
	</Location>
	<Coordinates>
    <Latitude>33.01</Latitude>
    <Longitude>85.07</Longitude>
	</Coordinates>
  </Airport>
  <Airport>
	<Location>
    <Code>RNO</Code>
    <City>Reno</City>
    <State>NV</State>
	</Location>
	<Coordinates>
    <Latitude>39.5</Latitude>
    <Longitude>119.78</Longitude>
	</Coordinates>
  </Airport>
  <Airport>
	<Location>
    <Code>BIE</Code>
    <City>Beatrice</City>
    <State>NE</State>
	</Location>
	<Coordinates>
    <Latitude>40.32</Latitude>
    <Longitude>96.75</Longitude>
	</Coordinates>
  </Airport>
  <Airport>
	<Location>
    <Code>BBW</Code>
    <City>Broken Bow</City>
    <State>NE</State>
	</Location>
	<Coordinates>
    <Latitude>41.43</Latitude>
    <Longitude>99.65</Longitude>
	</Coordinates>
  </Airport>
  <Airport>
	<Location>
    <Code>IDA</Code>
    <City>Idaho Falls</City>
    <State>ID</State>
	</Location>
	<Coordinates>
    <Latitude>43.52</Latitude>
    <Longitude>112.07</Longitude>
	</Coordinates>
  </Airport>
  <Airport>
	<Location>
    <Code>HFF</Code>
    <City>Mackall Aaf</City>
    <State>NC</State>
	</Location>
	<Coordinates>
    <Latitude>35.03</Latitude>
    <Longitude>79.5</Longitude>
	</Coordinates>
  </Airport>
  <Airport>
	<Location>
    <Code>SRQ</Code>
    <City>Sarasota</City>
    <State>FL</State>
	</Location>
	<Coordinates>
    <Latitude>27.4</Latitude>
    <Longitude>82.55</Longitude>
	</Coordinates>
  </Airport>
  <Airport>
	<Location>
    <Code>ITO</Code>
    <City>Hilo</City>
    <State>HI</State>
	</Location>
	<Coordinates>
    <Latitude>19.72</Latitude>
    <Longitude>155.07</Longitude>
	</Coordinates>
  </Airport>
  <Airport>
	<Location>
    <Code>GCK</Code>
    <City>Garden City</City>
    <State>KS</State>
	</Location>
	<Coordinates>
    <Latitude>37.93</Latitude>
    <Longitude>100.72</Longitude>
	</Coordinates>
  </Airport>
  <Airport>
	<Location>
    <Code>CIU</Code>
    <City>Chippewa</City>
    <State>MI</State>
	</Location>
	<Coordinates>
    <Latitude>46.25</Latitude>
    <Longitude>84.47</Longitude>
	</Coordinates>
  </Airport>
  <Airport>
	<Location>
    <Code>CDS</Code>
    <City>Childress</City>
    <State>TX</State>
	</Location>
	<Coordinates>
    <Latitude>34.43</Latitude>
    <Longitude>100.28</Longitude>
	</Coordinates>
  </Airport>
  <Airport>
	<Location>
    <Code>ZZV</Code>
    <City>Zanesville</City>
    <State>OH</State>
	</Location>
	<Coordinates>
    <Latitude>39.95</Latitude>
    <Longitude>81.9</Longitude>
	</Coordinates>
  </Airport>
  <Airport>
	<Location>
    <Code>LUK</Code>
    <City>Cincinnati</City>
    <State>OH</State>
	</Location>
	<Coordinates>
    <Latitude>39.1</Latitude>
    <Longitude>84.43</Longitude>
	</Coordinates>
  </Airport>
  <Airport>
	<Location>
    <Code>INK</Code>
    <City>Wink</City>
    <State>TX</State>
	</Location>
	<Coordinates>
    <Latitude>31.78</Latitude>
    <Longitude>103.2</Longitude>
	</Coordinates>
  </Airport>
  <Airport>
	<Location>
    <Code>TVL</Code>
    <City>Lake Tahoe</City>
    <State>CA</State>
	</Location>
	<Coordinates>
    <Latitude>38.9</Latitude>
    <Longitude>120</Longitude>
	</Coordinates>
  </Airport>
  <Airport>
	<Location>
    <Code>MQB</Code>
    <City>Macomb</City>
    <State>IL</State>
	</Location>
	<Coordinates>
    <Latitude>40.52</Latitude>
    <Longitude>90.66</Longitude>
	</Coordinates>
  </Airport>
  <Airport>
	<Location>
    <Code>MUO</Code>
    <City>Mountn Home</City>
    <State>ID</State>
	</Location>
	<Coordinates>
    <Latitude>43.05</Latitude>
    <Longitude>115.87</Longitude>
	</Coordinates>
  </Airport>
  <Airport>
	<Location>
    <Code>ELV</Code>
    <City>Elfin Cove</City>
    <State>AK</State>
	</Location>
	<Coordinates>
    <Latitude>58.2</Latitude>
    <Longitude>136.35</Longitude>
	</Coordinates>
  </Airport>
  <Airport>
	<Location>
    <Code>BNO</Code>
    <City>Burns Arpt</City>
    <State>OR</State>
	</Location>
	<Coordinates>
    <Latitude>43.6</Latitude>
    <Longitude>118.95</Longitude>
	</Coordinates>
  </Airport>
  <Airport>
	<Location>
    <Code>EED</Code>
    <City>Needles</City>
    <State>CA</State>
	</Location>
	<Coordinates>
    <Latitude>34.77</Latitude>
    <Longitude>114.62</Longitude>
	</Coordinates>
  </Airport>
  <Airport>
	<Location>
    <Code>RWF</Code>
    <City>Redwood Falls</City>
    <State>MN</State>
	</Location>
	<Coordinates>
    <Latitude>44.55</Latitude>
    <Longitude>95.08</Longitude>
	</Coordinates>
  </Airport>
  <Airport>
	<Location>
    <Code>ALN</Code>
    <City>Alton</City>
    <State>IL</State>
	</Location>
	<Coordinates>
    <Latitude>38.88</Latitude>
    <Longitude>90.05</Longitude>
	</Coordinates>
  </Airport>
  <Airport>
	<Location>
    <Code>HNA</Code>
    <City>Barbers Pt</City>
    <State>HI</State>
	</Location>
	<Coordinates>
    <Latitude>21.53</Latitude>
    <Longitude>158.12</Longitude>
	</Coordinates>
  </Airport>
  <Airport>
	<Location>
    <Code>ROW</Code>
    <City>Roswell</City>
    <State>NM</State>
	</Location>
	<Coordinates>
    <Latitude>33.3</Latitude>
    <Longitude>104.53</Longitude>
	</Coordinates>
  </Airport>
  <Airport>
	<Location>
    <Code>OME</Code>
    <City>Nome</City>
    <State>AK</State>
	</Location>
	<Coordinates>
    <Latitude>64.5</Latitude>
    <Longitude>165.43</Longitude>
	</Coordinates>
  </Airport>
  <Airport>
	<Location>
    <Code>ASE</Code>
    <City>Aspen</City>
    <State>CO</State>
	</Location>
	<Coordinates>
    <Latitude>39.22</Latitude>
    <Longitude>106.87</Longitude>
	</Coordinates>
  </Airport>
  <Airport>
	<Location>
    <Code>RSW</Code>
    <City>Ft Myers</City>
    <State>FL</State>
	</Location>
	<Coordinates>
    <Latitude>26.65</Latitude>
    <Longitude>81.87</Longitude>
	</Coordinates>
  </Airport>
  <Airport>
	<Location>
    <Code>LIC</Code>
    <City>Limon</City>
    <State>CO</State>
	</Location>
	<Coordinates>
    <Latitude>39.18</Latitude>
    <Longitude>103.7</Longitude>
	</Coordinates>
  </Airport>
  <Airport>
	<Location>
    <Code>PAH</Code>
    <City>Paducah</City>
    <State>KY</State>
	</Location>
	<Coordinates>
    <Latitude>37.07</Latitude>
    <Longitude>88.77</Longitude>
	</Coordinates>
  </Airport>
  <Airport>
	<Location>
    <Code>OWD</Code>
    <City>Norwood</City>
    <State>MA</State>
	</Location>
	<Coordinates>
    <Latitude>42.18</Latitude>
    <Longitude>71.18</Longitude>
	</Coordinates>
  </Airport>
  <Airport>
	<Location>
    <Code>MMH</Code>
    <City>Mammoth Lakes</City>
    <State>CA</State>
	</Location>
	<Coordinates>
    <Latitude>37.63</Latitude>
    <Longitude>118.92</Longitude>
	</Coordinates>
  </Airport>
  <Airport>
	<Location>
    <Code>VIS</Code>
    <City>Visalia</City>
    <State>CA</State>
	</Location>
	<Coordinates>
    <Latitude>36.32</Latitude>
    <Longitude>119.4</Longitude>
	</Coordinates>
  </Airport>
  <Airport>
	<Location>
    <Code>OPF</Code>
    <City>Miami/Opa</City>
    <State>FL</State>
	</Location>
	<Coordinates>
    <Latitude>25.92</Latitude>
    <Longitude>80.28</Longitude>
	</Coordinates>
  </Airport>
  <Airport>
	<Location>
    <Code>BUB</Code>
    <City>Burwell</City>
    <State>NE</State>
	</Location>
	<Coordinates>
    <Latitude>41.78</Latitude>
    <Longitude>99.15</Longitude>
	</Coordinates>
  </Airport>
  <Airport>
	<Location>
    <Code>SKJ</Code>
    <City>Sitkinak</City>
    <State>AK</State>
	</Location>
	<Coordinates>
    <Latitude>56.88</Latitude>
    <Longitude>154.2</Longitude>
	</Coordinates>
  </Airport>
  <Airport>
	<Location>
    <Code>AUW</Code>
    <City>Wausau</City>
    <State>WI</State>
	</Location>
	<Coordinates>
    <Latitude>44.92</Latitude>
    <Longitude>89.62</Longitude>
	</Coordinates>
  </Airport>
  <Airport>
	<Location>
    <Code>ILE</Code>
    <City>Killeen</City>
    <State>TX</State>
	</Location>
	<Coordinates>
    <Latitude>31.08</Latitude>
    <Longitude>97.68</Longitude>
	</Coordinates>
  </Airport>
  <Airport>
	<Location>
    <Code>LAN</Code>
    <City>Lansing</City>
    <State>MI</State>
	</Location>
	<Coordinates>
    <Latitude>42.77</Latitude>
    <Longitude>84.6</Longitude>
	</Coordinates>
  </Airport>
  <Airport>
	<Location>
    <Code>GON</Code>
    <City>Groton</City>
    <State>CT</State>
	</Location>
	<Coordinates>
    <Latitude>41.33</Latitude>
    <Longitude>72.05</Longitude>
	</Coordinates>
  </Airport>
  <Airport>
	<Location>
    <Code>SAT</Code>
    <City>San Antonio</City>
    <State>TX</State>
	</Location>
	<Coordinates>
    <Latitude>29.53</Latitude>
    <Longitude>98.47</Longitude>
	</Coordinates>
  </Airport>
  <Airport>
	<Location>
    <Code>BNA</Code>
    <City>Nashville</City>
    <State>TN</State>
	</Location>
	<Coordinates>
    <Latitude>36.12</Latitude>
    <Longitude>86.68</Longitude>
	</Coordinates>
  </Airport>
  <Airport>
	<Location>
    <Code>CID</Code>
    <City>Cedar Rapids</City>
    <State>IA</State>
	</Location>
	<Coordinates>
    <Latitude>41.88</Latitude>
    <Longitude>91.7</Longitude>
	</Coordinates>
  </Airport>
  <Airport>
	<Location>
    <Code>MCW</Code>
    <City>Mason City</City>
    <State>IA</State>
	</Location>
	<Coordinates>
    <Latitude>43.15</Latitude>
    <Longitude>93.33</Longitude>
	</Coordinates>
  </Airport>
  <Airport>
	<Location>
    <Code>JST</Code>
    <City>Johnstown</City>
    <State>PA</State>
	</Location>
	<Coordinates>
    <Latitude>40.32</Latitude>
    <Longitude>78.83</Longitude>
	</Coordinates>
  </Airport>
  <Airport>
	<Location>
    <Code>SYA</Code>
    <City>Shemy</City>
    <State>AK</State>
	</Location>
	<Coordinates>
    <Latitude>53.2</Latitude>
    <Longitude>174.13</Longitude>
	</Coordinates>
  </Airport>
  <Airport>
	<Location>
    <Code>ALS</Code>
    <City>Alamosa</City>
    <State>CO</State>
	</Location>
	<Coordinates>
    <Latitude>37.45</Latitude>
    <Longitude>105.87</Longitude>
	</Coordinates>
  </Airport>
  <Airport>
	<Location>
    <Code>LRF</Code>
    <City>Little Rock</City>
    <State>AR</State>
	</Location>
	<Coordinates>
    <Latitude>34.92</Latitude>
    <Longitude>92.15</Longitude>
	</Coordinates>
  </Airport>
  <Airport>
	<Location>
    <Code>TCL</Code>
    <City>Tuscaloosa</City>
    <State>AL</State>
	</Location>
	<Coordinates>
    <Latitude>33.23</Latitude>
    <Longitude>87.62</Longitude>
	</Coordinates>
  </Airport>
  <Airport>
	<Location>
    <Code>GUS</Code>
    <City>Grissom AFB</City>
    <State>IN</State>
	</Location>
	<Coordinates>
    <Latitude>40.65</Latitude>
    <Longitude>86.15</Longitude>
	</Coordinates>
  </Airport>
  <Airport>
	<Location>
    <Code>PIR</Code>
    <City>Pierre</City>
    <State>SD</State>
	</Location>
	<Coordinates>
    <Latitude>44.38</Latitude>
    <Longitude>100.28</Longitude>
	</Coordinates>
  </Airport>
  <Airport>
	<Location>
    <Code>BKF</Code>
    <City>Buckley</City>
    <State>CO</State>
	</Location>
	<Coordinates>
    <Latitude>39.72</Latitude>
    <Longitude>104.75</Longitude>
	</Coordinates>
  </Airport>
  <Airport>
	<Location>
    <Code>EMT</Code>
    <City>El Monte</City>
    <State>CA</State>
	</Location>
	<Coordinates>
    <Latitude>34.08</Latitude>
    <Longitude>118.03</Longitude>
	</Coordinates>
  </Airport>
  <Airport>
	<Location>
    <Code>JHW</Code>
    <City>Jamestown</City>
    <State>NY</State>
	</Location>
	<Coordinates>
    <Latitude>42.15</Latitude>
    <Longitude>79.25</Longitude>
	</Coordinates>
  </Airport>
  <Airport>
	<Location>
    <Code>DAN</Code>
    <City>Danville</City>
    <State>VA</State>
	</Location>
	<Coordinates>
    <Latitude>36.57</Latitude>
    <Longitude>79.33</Longitude>
	</Coordinates>
  </Airport>
  <Airport>
	<Location>
    <Code>SHR</Code>
    <City>Sheridan</City>
    <State>WY</State>
	</Location>
	<Coordinates>
    <Latitude>44.77</Latitude>
    <Longitude>106.97</Longitude>
	</Coordinates>
  </Airport>
  <Airport>
	<Location>
    <Code>DSV</Code>
    <City>Dansville</City>
    <State>NY</State>
	</Location>
	<Coordinates>
    <Latitude>42.97</Latitude>
    <Longitude>78.2</Longitude>
	</Coordinates>
  </Airport>
  <Airport>
	<Location>
    <Code>NLC</Code>
    <City>Lemoore NAS</City>
    <State>CA</State>
	</Location>
	<Coordinates>
    <Latitude>36.33</Latitude>
    <Longitude>119.95</Longitude>
	</Coordinates>
  </Airport>
  <Airport>
	<Location>
    <Code>CKV</Code>
    <City>Clarksville</City>
    <State>TN</State>
	</Location>
	<Coordinates>
    <Latitude>36.62</Latitude>
    <Longitude>87.42</Longitude>
	</Coordinates>
  </Airport>
  <Airport>
	<Location>
    <Code>CDB</Code>
    <City>Cold Bay</City>
    <State>AK</State>
	</Location>
	<Coordinates>
    <Latitude>55.2</Latitude>
    <Longitude>162.72</Longitude>
	</Coordinates>
  </Airport>
  <Airport>
	<Location>
    <Code>GEG</Code>
    <City>Spokane</City>
    <State>WA</State>
	</Location>
	<Coordinates>
    <Latitude>47.63</Latitude>
    <Longitude>117.53</Longitude>
	</Coordinates>
  </Airport>
  <Airport>
	<Location>
    <Code>SLE</Code>
    <City>Salem</City>
    <State>OR</State>
	</Location>
	<Coordinates>
    <Latitude>44.92</Latitude>
    <Longitude>123</Longitude>
	</Coordinates>
  </Airport>
  <Airport>
	<Location>
    <Code>PUW</Code>
    <City>Pullman</City>
    <State>WA</State>
	</Location>
	<Coordinates>
    <Latitude>46.75</Latitude>
    <Longitude>117.12</Longitude>
	</Coordinates>
  </Airport>
  <Airport>
	<Location>
    <Code>YKM</Code>
    <City>Yakima</City>
    <State>WA</State>
	</Location>
	<Coordinates>
    <Latitude>46.57</Latitude>
    <Longitude>120.53</Longitude>
	</Coordinates>
  </Airport>
  <Airport>
	<Location>
    <Code>CLM</Code>
    <City>Port Angeles</City>
    <State>WA</State>
	</Location>
	<Coordinates>
    <Latitude>48.12</Latitude>
    <Longitude>123.5</Longitude>
	</Coordinates>
  </Airport>
  <Airport>
	<Location>
    <Code>SBN</Code>
    <City>South Bend</City>
    <State>IN</State>
	</Location>
	<Coordinates>
    <Latitude>41.7</Latitude>
    <Longitude>86.32</Longitude>
	</Coordinates>
  </Airport>
  <Airport>
	<Location>
    <Code>NUC</Code>
    <City>San Clemente</City>
    <State>CA</State>
	</Location>
	<Coordinates>
    <Latitude>33.02</Latitude>
    <Longitude>118.58</Longitude>
	</Coordinates>
  </Airport>
  <Airport>
	<Location>
    <Code>LOL</Code>
    <City>Lovelock</City>
    <State>NV</State>
	</Location>
	<Coordinates>
    <Latitude>40.1</Latitude>
    <Longitude>118.92</Longitude>
	</Coordinates>
  </Airport>
  <Airport>
	<Location>
    <Code>IWD</Code>
    <City>Ironwood</City>
    <State>MI</State>
	</Location>
	<Coordinates>
    <Latitude>46.53</Latitude>
    <Longitude>90.13</Longitude>
	</Coordinates>
  </Airport>
  <Airport>
	<Location>
    <Code>BLH</Code>
    <City>Blythe</City>
    <State>CA</State>
	</Location>
	<Coordinates>
    <Latitude>33.62</Latitude>
    <Longitude>114.72</Longitude>
	</Coordinates>
  </Airport>
  <Airport>
	<Location>
    <Code>DTL</Code>
    <City>Detroit Laks</City>
    <State>MN</State>
	</Location>
	<Coordinates>
    <Latitude>46.82</Latitude>
    <Longitude>95.88</Longitude>
	</Coordinates>
  </Airport>
  <Airport>
	<Location>
    <Code>PGA</Code>
    <City>Page</City>
    <State>AZ</State>
	</Location>
	<Coordinates>
    <Latitude>36.93</Latitude>
    <Longitude>111.45</Longitude>
	</Coordinates>
  </Airport>
  <Airport>
	<Location>
    <Code>NGU</Code>
    <City>Norfolk NAS</City>
    <State>VA</State>
	</Location>
	<Coordinates>
    <Latitude>36.93</Latitude>
    <Longitude>76.28</Longitude>
	</Coordinates>
  </Airport>
  <Airport>
	<Location>
    <Code>BLU</Code>
    <City>Blue Canyon</City>
    <State>CA</State>
	</Location>
	<Coordinates>
    <Latitude>39.28</Latitude>
    <Longitude>120.7</Longitude>
	</Coordinates>
  </Airport>
  <Airport>
	<Location>
    <Code>PPD</Code>
    <City>Pt Piedras</City>
    <State>CA</State>
	</Location>
	<Coordinates>
    <Latitude>36.12</Latitude>
    <Longitude>121.47</Longitude>
	</Coordinates>
  </Airport>
  <Airport>
	<Location>
    <Code>FLG</Code>
    <City>Flagstaff</City>
    <State>AZ</State>
	</Location>
	<Coordinates>
    <Latitude>35.13</Latitude>
    <Longitude>111.67</Longitude>
	</Coordinates>
  </Airport>
  <Airport>
	<Location>
    <Code>MWL</Code>
    <City>Mineral Wlls</City>
    <State>TX</State>
	</Location>
	<Coordinates>
    <Latitude>32.78</Latitude>
    <Longitude>98.07</Longitude>
	</Coordinates>
  </Airport>
  <Airport>
	<Location>
    <Code>KSM</Code>
    <City>New Andreafs</City>
    <State>AK</State>
	</Location>
	<Coordinates>
    <Latitude>62.07</Latitude>
    <Longitude>163.3</Longitude>
	</Coordinates>
  </Airport>
  <Airport>
	<Location>
    <Code>CHS</Code>
    <City>Charleston</City>
    <State>SC</State>
	</Location>
	<Coordinates>
    <Latitude>32.9</Latitude>
    <Longitude>80.03</Longitude>
	</Coordinates>
  </Airport>
  <Airport>
	<Location>
    <Code>OSC</Code>
    <City>Wurtsmith</City>
    <State>MI</State>
	</Location>
	<Coordinates>
    <Latitude>44.45</Latitude>
    <Longitude>83.4</Longitude>
	</Coordinates>
  </Airport>
  <Airport>
	<Location>
    <Code>BFI</Code>
    <City>Seattle/Boeing</City>
    <State>WA</State>
	</Location>
	<Coordinates>
    <Latitude>47.53</Latitude>
    <Longitude>122.3</Longitude>
	</Coordinates>
  </Airport>
  <Airport>
	<Location>
    <Code>MLY</Code>
    <City>Manley Ht Sp</City>
    <State>AK</State>
	</Location>
	<Coordinates>
    <Latitude>65</Latitude>
    <Longitude>150.65</Longitude>
	</Coordinates>
  </Airport>
  <Airport>
	<Location>
    <Code>RHV</Code>
    <City>San Jose/Rei</City>
    <State>CA</State>
	</Location>
	<Coordinates>
    <Latitude>37.33</Latitude>
    <Longitude>121.82</Longitude>
	</Coordinates>
  </Airport>
  <Airport>
	<Location>
    <Code>LAM</Code>
    <City>Los Alamos</City>
    <State>NM</State>
	</Location>
	<Coordinates>
    <Latitude>35.88</Latitude>
    <Longitude>106.28</Longitude>
	</Coordinates>
  </Airport>
  <Airport>
	<Location>
    <Code>MPV</Code>
    <City>Montpelier</City>
    <State>VT</State>
	</Location>
	<Coordinates>
    <Latitude>44.2</Latitude>
    <Longitude>72.57</Longitude>
	</Coordinates>
  </Airport>
  <Airport>
	<Location>
    <Code>ADQ</Code>
    <City>Kodiak</City>
    <State>AK</State>
	</Location>
	<Coordinates>
    <Latitude>57.75</Latitude>
    <Longitude>152.5</Longitude>
	</Coordinates>
  </Airport>
  <Airport>
	<Location>
    <Code>PAO</Code>
    <City>Palo Alto</City>
    <State>CA</State>
	</Location>
	<Coordinates>
    <Latitude>37.47</Latitude>
    <Longitude>122.12</Longitude>
	</Coordinates>
  </Airport>
  <Airport>
	<Location>
    <Code>LSE</Code>
    <City>La Crosse</City>
    <State>WI</State>
	</Location>
	<Coordinates>
    <Latitude>43.87</Latitude>
    <Longitude>91.25</Longitude>
	</Coordinates>
  </Airport>
  <Airport>
	<Location>
    <Code>ATL</Code>
    <City>Atlanta</City>
    <State>GA</State>
	</Location>
	<Coordinates>
    <Latitude>33.65</Latitude>
    <Longitude>84.42</Longitude>
	</Coordinates>
  </Airport>
  <Airport>
	<Location>
    <Code>MER</Code>
    <City>Castle AFB</City>
    <State>CA</State>
	</Location>
	<Coordinates>
    <Latitude>37.38</Latitude>
    <Longitude>120.57</Longitude>
	</Coordinates>
  </Airport>
  <Airport>
	<Location>
    <Code>VIH</Code>
    <City>Vichy/Rolla</City>
    <State>MO</State>
	</Location>
	<Coordinates>
    <Latitude>38.13</Latitude>
    <Longitude>91.77</Longitude>
	</Coordinates>
  </Airport>
  <Airport>
	<Location>
    <Code>BKH</Code>
    <City>Barking San</City>
    <State>HI</State>
	</Location>
	<Coordinates>
    <Latitude>22.05</Latitude>
    <Longitude>160.3</Longitude>
	</Coordinates>
  </Airport>
  <Airport>
	<Location>
    <Code>GRF</Code>
    <City>Fort Lewis</City>
    <State>WA</State>
	</Location>
	<Coordinates>
    <Latitude>47.08</Latitude>
    <Longitude>122.58</Longitude>
	</Coordinates>
  </Airport>
  <Airport>
	<Location>
    <Code>ICT</Code>
    <City>Wichita</City>
    <State>KS</State>
	</Location>
	<Coordinates>
    <Latitude>37.65</Latitude>
    <Longitude>97.43</Longitude>
	</Coordinates>
  </Airport>
  <Airport>
	<Location>
    <Code>LVM</Code>
    <City>Livingston</City>
    <State>MT</State>
	</Location>
	<Coordinates>
    <Latitude>45.7</Latitude>
    <Longitude>110.43</Longitude>
	</Coordinates>
  </Airport>
  <Airport>
	<Location>
    <Code>YIP</Code>
    <City>Ypsilanti</City>
    <State>MI</State>
	</Location>
	<Coordinates>
    <Latitude>42.23</Latitude>
    <Longitude>83.53</Longitude>
	</Coordinates>
  </Airport>
  <Airport>
	<Location>
    <Code>LFK</Code>
    <City>Lufkin</City>
    <State>TX</State>
	</Location>
	<Coordinates>
    <Latitude>31.23</Latitude>
    <Longitude>94.75</Longitude>
	</Coordinates>
  </Airport>
  <Airport>
	<Location>
    <Code>LXV</Code>
    <City>Leadville</City>
    <State>CO</State>
	</Location>
	<Coordinates>
    <Latitude>39.25</Latitude>
    <Longitude>106.3</Longitude>
	</Coordinates>
  </Airport>
  <Airport>
	<Location>
    <Code>MGW</Code>
    <City>Morgantown</City>
    <State>WV</State>
	</Location>
	<Coordinates>
    <Latitude>39.65</Latitude>
    <Longitude>79.92</Longitude>
	</Coordinates>
  </Airport>
  <Airport>
	<Location>
    <Code>OAK</Code>
    <City>Oakland</City>
    <State>CA</State>
	</Location>
	<Coordinates>
    <Latitude>37.73</Latitude>
    <Longitude>122.22</Longitude>
	</Coordinates>
  </Airport>
  <Airport>
	<Location>
    <Code>DKB</Code>
    <City>De Kalb</City>
    <State>IL</State>
	</Location>
	<Coordinates>
    <Latitude>41.93</Latitude>
    <Longitude>88.72</Longitude>
	</Coordinates>
  </Airport>
  <Airport>
	<Location>
    <Code>SHD</Code>
    <City>Staunton</City>
    <State>VA</State>
	</Location>
	<Coordinates>
    <Latitude>38.27</Latitude>
    <Longitude>78.85</Longitude>
	</Coordinates>
  </Airport>
  <Airport>
	<Location>
    <Code>RSL</Code>
    <City>Russell</City>
    <State>KS</State>
	</Location>
	<Coordinates>
    <Latitude>38.87</Latitude>
    <Longitude>98.82</Longitude>
	</Coordinates>
  </Airport>
  <Airport>
	<Location>
    <Code>NBE</Code>
    <City>Dallas NAS</City>
    <State>TX</State>
	</Location>
	<Coordinates>
    <Latitude>32.73</Latitude>
    <Longitude>96.97</Longitude>
	</Coordinates>
  </Airport>
  <Airport>
	<Location>
    <Code>SBS</Code>
    <City>Steamboat Sp</City>
    <State>CO</State>
	</Location>
	<Coordinates>
    <Latitude>40.48</Latitude>
    <Longitude>106.82</Longitude>
	</Coordinates>
  </Airport>
  <Airport>
	<Location>
    <Code>CSP</Code>
    <City>Cape Spence</City>
    <State>AK</State>
	</Location>
	<Coordinates>
    <Latitude>58.33</Latitude>
    <Longitude>137.05</Longitude>
	</Coordinates>
  </Airport>
  <Airport>
	<Location>
    <Code>LWS</Code>
    <City>Lewiston</City>
    <State>ID</State>
	</Location>
	<Coordinates>
    <Latitude>46.38</Latitude>
    <Longitude>117.02</Longitude>
	</Coordinates>
  </Airport>
  <Airport>
	<Location>
    <Code>LNS</Code>
    <City>Lancaster</City>
    <State>PA</State>
	</Location>
	<Coordinates>
    <Latitude>40.13</Latitude>
    <Longitude>76.3</Longitude>
	</Coordinates>
  </Airport>
  <Airport>
	<Location>
    <Code>PDT</Code>
    <City>Pendleton</City>
    <State>OR</State>
	</Location>
	<Coordinates>
    <Latitude>45.68</Latitude>
    <Longitude>118.85</Longitude>
	</Coordinates>
  </Airport>
  <Airport>
	<Location>
    <Code>MSY</Code>
    <City>New Orleans</City>
    <State>LA</State>
	</Location>
	<Coordinates>
    <Latitude>29.98</Latitude>
    <Longitude>90.25</Longitude>
	</Coordinates>
  </Airport>
  <Airport>
	<Location>
    <Code>MKK</Code>
    <City>Molokai</City>
    <State>HI</State>
	</Location>
	<Coordinates>
    <Latitude>21.15</Latitude>
    <Longitude>157.1</Longitude>
	</Coordinates>
  </Airport>
  <Airport>
	<Location>
    <Code>BFD</Code>
    <City>Bradford</City>
    <State>PA</State>
	</Location>
	<Coordinates>
    <Latitude>41.8</Latitude>
    <Longitude>78.63</Longitude>
	</Coordinates>
  </Airport>
  <Airport>
	<Location>
    <Code>AQQ</Code>
    <City>Apalachicola</City>
    <State>FL</State>
	</Location>
	<Coordinates>
    <Latitude>29.73</Latitude>
    <Longitude>85.03</Longitude>
	</Coordinates>
  </Airport>
  <Airport>
	<Location>
    <Code>COT</Code>
    <City>Cotulla</City>
    <State>TX</State>
	</Location>
	<Coordinates>
    <Latitude>28.45</Latitude>
    <Longitude>99.22</Longitude>
	</Coordinates>
  </Airport>
  <Airport>
	<Location>
    <Code>BRO</Code>
    <City>Brownsville</City>
    <State>TX</State>
	</Location>
	<Coordinates>
    <Latitude>25.9</Latitude>
    <Longitude>97.43</Longitude>
	</Coordinates>
  </Airport>
  <Airport>
	<Location>
    <Code>RUT</Code>
    <City>Rutland</City>
    <State>VT</State>
	</Location>
	<Coordinates>
    <Latitude>43.53</Latitude>
    <Longitude>73.95</Longitude>
	</Coordinates>
  </Airport>
  <Airport>
	<Location>
    <Code>SNP</Code>
    <City>St Paul Is</City>
    <State>AK</State>
	</Location>
	<Coordinates>
    <Latitude>57.15</Latitude>
    <Longitude>170.22</Longitude>
	</Coordinates>
  </Airport>
  <Airport>
	<Location>
    <Code>ALB</Code>
    <City>Albany</City>
    <State>NY</State>
	</Location>
	<Coordinates>
    <Latitude>42.75</Latitude>
    <Longitude>73.8</Longitude>
	</Coordinates>
  </Airport>
  <Airport>
	<Location>
    <Code>COU</Code>
    <City>Columbia</City>
    <State>MO</State>
	</Location>
	<Coordinates>
    <Latitude>38.82</Latitude>
    <Longitude>92.22</Longitude>
	</Coordinates>
  </Airport>
  <Airport>
	<Location>
    <Code>BSI</Code>
    <City>Blairsville</City>
    <State>PA</State>
	</Location>
	<Coordinates>
    <Latitude>40.27</Latitude>
    <Longitude>79.09</Longitude>
	</Coordinates>
  </Airport>
  <Airport>
	<Location>
    <Code>GBN</Code>
    <City>Gila Bend</City>
    <State>AZ</State>
	</Location>
	<Coordinates>
    <Latitude>33.55</Latitude>
    <Longitude>113.17</Longitude>
	</Coordinates>
  </Airport>
  <Airport>
	<Location>
    <Code>PWM</Code>
    <City>Portland</City>
    <State>ME</State>
	</Location>
	<Coordinates>
    <Latitude>43.65</Latitude>
    <Longitude>70.32</Longitude>
	</Coordinates>
  </Airport>
  <Airport>
	<Location>
    <Code>BTV</Code>
    <City>Burlington</City>
    <State>VT</State>
	</Location>
	<Coordinates>
    <Latitude>44.47</Latitude>
    <Longitude>73.15</Longitude>
	</Coordinates>
  </Airport>
  <Airport>
	<Location>
    <Code>MHN</Code>
    <City>Mullen</City>
    <State>NE</State>
	</Location>
	<Coordinates>
    <Latitude>42.05</Latitude>
    <Longitude>101.05</Longitude>
	</Coordinates>
  </Airport>
  <Airport>
	<Location>
    <Code>NSI</Code>
    <City>San Nic Isl</City>
    <State>CA</State>
	</Location>
	<Coordinates>
    <Latitude>33.25</Latitude>
    <Longitude>119.45</Longitude>
	</Coordinates>
  </Airport>
  <Airport>
	<Location>
    <Code>APC</Code>
    <City>Napa</City>
    <State>CA</State>
	</Location>
	<Coordinates>
    <Latitude>38.22</Latitude>
    <Longitude>122.28</Longitude>
	</Coordinates>
  </Airport>
  <Airport>
	<Location>
    <Code>LCI</Code>
    <City>Laconia</City>
    <State>NH</State>
	</Location>
	<Coordinates>
    <Latitude>43.57</Latitude>
    <Longitude>71.43</Longitude>
	</Coordinates>
  </Airport>
  <Airport>
	<Location>
    <Code>NZC</Code>
    <City>Cecil</City>
    <State>FL</State>
	</Location>
	<Coordinates>
    <Latitude>30.22</Latitude>
    <Longitude>81.88</Longitude>
	</Coordinates>
  </Airport>
  <Airport>
	<Location>
    <Code>WJF</Code>
    <City>Lancaster</City>
    <State>CA</State>
	</Location>
	<Coordinates>
    <Latitude>34.73</Latitude>
    <Longitude>118.22</Longitude>
	</Coordinates>
  </Airport>
  <Airport>
	<Location>
    <Code>CGI</Code>
    <City>Cp Girardeau</City>
    <State>MO</State>
	</Location>
	<Coordinates>
    <Latitude>37.23</Latitude>
    <Longitude>89.58</Longitude>
	</Coordinates>
  </Airport>
  <Airport>
	<Location>
    <Code>RIW</Code>
    <City>Riverton</City>
    <State>WY</State>
	</Location>
	<Coordinates>
    <Latitude>43.05</Latitude>
    <Longitude>108.45</Longitude>
	</Coordinates>
  </Airport>
  <Airport>
	<Location>
    <Code>LNN</Code>
    <City>Willoughby</City>
    <State>OH</State>
	</Location>
	<Coordinates>
    <Latitude>41.63</Latitude>
    <Longitude>81.4</Longitude>
	</Coordinates>
  </Airport>
  <Airport>
	<Location>
    <Code>MEM</Code>
    <City>Memphis International</City>
    <State>TN</State>
	</Location>
	<Coordinates>
    <Latitude>35.05</Latitude>
    <Longitude>90</Longitude>
	</Coordinates>
  </Airport>
  <Airport>
	<Location>
    <Code>MLU</Code>
    <City>Monroe</City>
    <State>LA</State>
	</Location>
	<Coordinates>
    <Latitude>32.52</Latitude>
    <Longitude>92.05</Longitude>
	</Coordinates>
  </Airport>
  <Airport>
	<Location>
    <Code>GST</Code>
    <City>Gustavus</City>
    <State>AK</State>
	</Location>
	<Coordinates>
    <Latitude>58.42</Latitude>
    <Longitude>135.73</Longitude>
	</Coordinates>
  </Airport>
  <Airport>
	<Location>
    <Code>SEA</Code>
    <City>Seattle</City>
    <State>WA</State>
	</Location>
	<Coordinates>
    <Latitude>47.45</Latitude>
    <Longitude>122.3</Longitude>
	</Coordinates>
  </Airport>
  <Airport>
	<Location>
    <Code>BAD</Code>
    <City>Barksdale</City>
    <State>LA</State>
	</Location>
	<Coordinates>
    <Latitude>32.5</Latitude>
    <Longitude>93.67</Longitude>
	</Coordinates>
  </Airport>
  <Airport>
	<Location>
    <Code>RND</Code>
    <City>Randolph AFB</City>
    <State>TX</State>
	</Location>
	<Coordinates>
    <Latitude>29.53</Latitude>
    <Longitude>98.28</Longitude>
	</Coordinates>
  </Airport>
  <Airport>
	<Location>
    <Code>BUO</Code>
    <City>Beaumont</City>
    <State>CA</State>
	</Location>
	<Coordinates>
    <Latitude>33.93</Latitude>
    <Longitude>116.95</Longitude>
	</Coordinates>
  </Airport>
  <Airport>
	<Location>
    <Code>CRE</Code>
    <City>North Myrtle Beach</City>
    <State>SC</State>
	</Location>
	<Coordinates>
    <Latitude>33.82</Latitude>
    <Longitude>78.72</Longitude>
	</Coordinates>
  </Airport>
  <Airport>
	<Location>
    <Code>BTI</Code>
    <City>Barter Islan</City>
    <State>AK</State>
	</Location>
	<Coordinates>
    <Latitude>70.13</Latitude>
    <Longitude>143.63</Longitude>
	</Coordinates>
  </Airport>
  <Airport>
	<Location>
    <Code>RBD</Code>
    <City>Dallas/Redbr</City>
    <State>TX</State>
	</Location>
	<Coordinates>
    <Latitude>32.68</Latitude>
    <Longitude>96.87</Longitude>
	</Coordinates>
  </Airport>
  <Airport>
	<Location>
    <Code>MHR</Code>
    <City>Mather AFB</City>
    <State>CA</State>
	</Location>
	<Coordinates>
    <Latitude>38.57</Latitude>
    <Longitude>121.3</Longitude>
	</Coordinates>
  </Airport>
  <Airport>
	<Location>
    <Code>PRX</Code>
    <City>Paris/Cox</City>
    <State>TX</State>
	</Location>
	<Coordinates>
    <Latitude>33.63</Latitude>
    <Longitude>95.45</Longitude>
	</Coordinates>
  </Airport>
  <Airport>
	<Location>
    <Code>LAS</Code>
    <City>Las Vegas</City>
    <State>NV</State>
	</Location>
	<Coordinates>
    <Latitude>36.08</Latitude>
    <Longitude>115.17</Longitude>
	</Coordinates>
  </Airport>
  <Airport>
	<Location>
    <Code>WCR</Code>
    <City>Chandalar Lk</City>
    <State>AK</State>
	</Location>
	<Coordinates>
    <Latitude>67.5</Latitude>
    <Longitude>148.48</Longitude>
	</Coordinates>
  </Airport>
  <Airport>
	<Location>
    <Code>VRB</Code>
    <City>Vero Beach</City>
    <State>FL</State>
	</Location>
	<Coordinates>
    <Latitude>27.65</Latitude>
    <Longitude>80.42</Longitude>
	</Coordinates>
  </Airport>
  <Airport>
	<Location>
    <Code>JHM</Code>
    <City>Maui</City>
    <State>HI</State>
	</Location>
	<Coordinates>
    <Latitude>20.97</Latitude>
    <Longitude>156.83</Longitude>
	</Coordinates>
  </Airport>
  <Airport>
	<Location>
    <Code>FVM</Code>
    <City>Five Mile</City>
    <State>AK</State>
	</Location>
	<Coordinates>
    <Latitude>65.93</Latitude>
    <Longitude>149.83</Longitude>
	</Coordinates>
  </Airport>
  <Airport>
	<Location>
    <Code>XMR</Code>
    <City>Cape Canaveral</City>
    <State>FL</State>
	</Location>
	<Coordinates>
    <Latitude>28.47</Latitude>
    <Longitude>80.55</Longitude>
	</Coordinates>
  </Airport>
  <Airport>
	<Location>
    <Code>BUR</Code>
    <City>Burbank</City>
    <State>CA</State>
	</Location>
	<Coordinates>
    <Latitude>34.2</Latitude>
    <Longitude>118.37</Longitude>
	</Coordinates>
  </Airport>
  <Airport>
	<Location>
    <Code>ELM</Code>
    <City>Elmira</City>
    <State>NY</State>
	</Location>
	<Coordinates>
    <Latitude>42.17</Latitude>
    <Longitude>76.9</Longitude>
	</Coordinates>
  </Airport>
  <Airport>
	<Location>
    <Code>PVD</Code>
    <City>Providence</City>
    <State>RI</State>
	</Location>
	<Coordinates>
    <Latitude>41.73</Latitude>
    <Longitude>71.43</Longitude>
	</Coordinates>
  </Airport>
  <Airport>
	<Location>
    <Code>SKW</Code>
    <City>Skwentna</City>
    <State>AK</State>
	</Location>
	<Coordinates>
    <Latitude>61.97</Latitude>
    <Longitude>151.2</Longitude>
	</Coordinates>
  </Airport>
  <Airport>
	<Location>
    <Code>LFI</Code>
    <City>Langley AFB</City>
    <State>VA</State>
	</Location>
	<Coordinates>
    <Latitude>37.08</Latitude>
    <Longitude>76.37</Longitude>
	</Coordinates>
  </Airport>
  <Airport>
	<Location>
    <Code>FTK</Code>
    <City>Ft Knox</City>
    <State>KY</State>
	</Location>
	<Coordinates>
    <Latitude>37.9</Latitude>
    <Longitude>85.97</Longitude>
	</Coordinates>
  </Airport>
  <Airport>
	<Location>
    <Code>MBL</Code>
    <City>Manistee</City>
    <State>MI</State>
	</Location>
	<Coordinates>
    <Latitude>44.27</Latitude>
    <Longitude>86.25</Longitude>
	</Coordinates>
  </Airport>
  <Airport>
	<Location>
    <Code>DAA</Code>
    <City>Fort Belvoir</City>
    <State>VA</State>
	</Location>
	<Coordinates>
    <Latitude>38.72</Latitude>
    <Longitude>77.18</Longitude>
	</Coordinates>
  </Airport>
  <Airport>
	<Location>
    <Code>DRA</Code>
    <City>Mercury</City>
    <State>NV</State>
	</Location>
	<Coordinates>
    <Latitude>36.62</Latitude>
    <Longitude>116.02</Longitude>
	</Coordinates>
  </Airport>
  <Airport>
	<Location>
    <Code>PWT</Code>
    <City>Bremerton</City>
    <State>WA</State>
	</Location>
	<Coordinates>
    <Latitude>47.48</Latitude>
    <Longitude>122.77</Longitude>
	</Coordinates>
  </Airport>
  <Airport>
	<Location>
    <Code>HIO</Code>
    <City>Hillsboro</City>
    <State>OR</State>
	</Location>
	<Coordinates>
    <Latitude>45.53</Latitude>
    <Longitude>122.95</Longitude>
	</Coordinates>
  </Airport>
  <Airport>
	<Location>
    <Code>IAG</Code>
    <City>Niagara Falls</City>
    <State>NY</State>
	</Location>
	<Coordinates>
    <Latitude>43.1</Latitude>
    <Longitude>78.95</Longitude>
	</Coordinates>
  </Airport>
  <Airport>
	<Location>
    <Code>DAY</Code>
    <City>Dayton</City>
    <State>OH</State>
	</Location>
	<Coordinates>
    <Latitude>39.9</Latitude>
    <Longitude>84.2</Longitude>
	</Coordinates>
  </Airport>
  <Airport>
	<Location>
    <Code>MSO</Code>
    <City>Missoula</City>
    <State>MT</State>
	</Location>
	<Coordinates>
    <Latitude>46.92</Latitude>
    <Longitude>114.08</Longitude>
	</Coordinates>
  </Airport>
  <Airport>
	<Location>
    <Code>BLI</Code>
    <City>Bellingham</City>
    <State>WA</State>
	</Location>
	<Coordinates>
    <Latitude>48.8</Latitude>
    <Longitude>122.53</Longitude>
	</Coordinates>
  </Airport>
  <Airport>
	<Location>
    <Code>BED</Code>
    <City>Bedford</City>
    <State>MA</State>
	</Location>
	<Coordinates>
    <Latitude>42.47</Latitude>
    <Longitude>71.28</Longitude>
	</Coordinates>
  </Airport>
  <Airport>
	<Location>
    <Code>MIA</Code>
    <City>Miami International</City>
    <State>FL</State>
	</Location>
	<Coordinates>
    <Latitude>25.82</Latitude>
    <Longitude>80.28</Longitude>
	</Coordinates>
  </Airport>
  <Airport>
	<Location>
    <Code>MDH</Code>
    <City>Carbondale</City>
    <State>IL</State>
	</Location>
	<Coordinates>
    <Latitude>37.78</Latitude>
    <Longitude>89.25</Longitude>
	</Coordinates>
  </Airport>
  <Airport>
	<Location>
    <Code>RFD</Code>
    <City>Rockford</City>
    <State>IL</State>
	</Location>
	<Coordinates>
    <Latitude>42.2</Latitude>
    <Longitude>89.1</Longitude>
	</Coordinates>
  </Airport>
  <Airport>
	<Location>
    <Code>JAC</Code>
    <City>Jackson</City>
    <State>WY</State>
	</Location>
	<Coordinates>
    <Latitude>43.6</Latitude>
    <Longitude>110.73</Longitude>
	</Coordinates>
  </Airport>
  <Airport>
	<Location>
    <Code>HKY</Code>
    <City>Hickory</City>
    <State>NC</State>
	</Location>
	<Coordinates>
    <Latitude>35.75</Latitude>
    <Longitude>81.38</Longitude>
	</Coordinates>
  </Airport>
  <Airport>
	<Location>
    <Code>LWM</Code>
    <City>Lawrence</City>
    <State>MA</State>
	</Location>
	<Coordinates>
    <Latitude>42.72</Latitude>
    <Longitude>71.12</Longitude>
	</Coordinates>
  </Airport>
  <Airport>
	<Location>
    <Code>NCA</Code>
    <City>New River</City>
    <State>NC</State>
	</Location>
	<Coordinates>
    <Latitude>34.7</Latitude>
    <Longitude>77.43</Longitude>
	</Coordinates>
  </Airport>
  <Airport>
	<Location>
    <Code>CRQ</Code>
    <City>Carlsbad</City>
    <State>CA</State>
	</Location>
	<Coordinates>
    <Latitude>33.13</Latitude>
    <Longitude>117.28</Longitude>
	</Coordinates>
  </Airport>
  <Airport>
	<Location>
    <Code>HMN</Code>
    <City>Holloman AFB</City>
    <State>NM</State>
	</Location>
	<Coordinates>
    <Latitude>32.85</Latitude>
    <Longitude>106.1</Longitude>
	</Coordinates>
  </Airport>
  <Airport>
	<Location>
    <Code>TPH</Code>
    <City>Tonopah</City>
    <State>NV</State>
	</Location>
	<Coordinates>
    <Latitude>38.07</Latitude>
    <Longitude>117.08</Longitude>
	</Coordinates>
  </Airport>
  <Airport>
	<Location>
    <Code>SSU</Code>
    <City>White Sulph</City>
    <State>WV</State>
	</Location>
	<Coordinates>
    <Latitude>37.46</Latitude>
    <Longitude>80.2</Longitude>
	</Coordinates>
  </Airport>
  <Airport>
	<Location>
    <Code>NZW</Code>
    <City>SWeymouth</City>
    <State>MA</State>
	</Location>
	<Coordinates>
    <Latitude>42.15</Latitude>
    <Longitude>70.93</Longitude>
	</Coordinates>
  </Airport>
  <Airport>
	<Location>
    <Code>CNO</Code>
    <City>Chino</City>
    <State>CA</State>
	</Location>
	<Coordinates>
    <Latitude>33.97</Latitude>
    <Longitude>117.63</Longitude>
	</Coordinates>
  </Airport>
  <Airport>
	<Location>
    <Code>DDC</Code>
    <City>Dodge City</City>
    <State>KS</State>
	</Location>
	<Coordinates>
    <Latitude>37.77</Latitude>
    <Longitude>99.97</Longitude>
	</Coordinates>
  </Airport>
  <Airport>
	<Location>
    <Code>MUE</Code>
    <City>Waimea-Koha</City>
    <State>HI</State>
	</Location>
	<Coordinates>
    <Latitude>20</Latitude>
    <Longitude>156.12</Longitude>
	</Coordinates>
  </Airport>
  <Airport>
	<Location>
    <Code>MHT</Code>
    <City>Manchester</City>
    <State>NH</State>
	</Location>
	<Coordinates>
    <Latitude>42.93</Latitude>
    <Longitude>71.43</Longitude>
	</Coordinates>
  </Airport>
  <Airport>
	<Location>
    <Code>GSB</Code>
    <City>Seymour-John</City>
    <State>NC</State>
	</Location>
	<Coordinates>
    <Latitude>35.33</Latitude>
    <Longitude>77.97</Longitude>
	</Coordinates>
  </Airport>
  <Airport>
	<Location>
    <Code>INT</Code>
    <City>Winston-Salem</City>
    <State>NC</State>
	</Location>
	<Coordinates>
    <Latitude>36.13</Latitude>
    <Longitude>80.23</Longitude>
	</Coordinates>
  </Airport>
  <Airport>
	<Location>
    <Code>MCK</Code>
    <City>Mccook</City>
    <State>NE</State>
	</Location>
	<Coordinates>
    <Latitude>40.22</Latitude>
    <Longitude>100.58</Longitude>
	</Coordinates>
  </Airport>
  <Airport>
	<Location>
    <Code>GXY</Code>
    <City>Greeley-Wld</City>
    <State>CO</State>
	</Location>
	<Coordinates>
    <Latitude>40.43</Latitude>
    <Longitude>104.63</Longitude>
	</Coordinates>
  </Airport>
  <Airport>
	<Location>
    <Code>BGS</Code>
    <City>Big Sky</City>
    <State>TX</State>
	</Location>
	<Coordinates>
    <Latitude>32.39</Latitude>
    <Longitude>101.48</Longitude>
	</Coordinates>
  </Airport>
  <Airport>
	<Location>
    <Code>TCM</Code>
    <City>Mcchord AFB</City>
    <State>WA</State>
	</Location>
	<Coordinates>
    <Latitude>47.15</Latitude>
    <Longitude>122.48</Longitude>
	</Coordinates>
  </Airport>
  <Airport>
	<Location>
    <Code>ESF</Code>
    <City>Alexandria</City>
    <State>LA</State>
	</Location>
	<Coordinates>
    <Latitude>31.38</Latitude>
    <Longitude>92.3</Longitude>
	</Coordinates>
  </Airport>
  <Airport>
	<Location>
    <Code>MTW</Code>
    <City>Manitowac</City>
    <State>WI</State>
	</Location>
	<Coordinates>
    <Latitude>44.13</Latitude>
    <Longitude>87.67</Longitude>
	</Coordinates>
  </Airport>
  <Airport>
	<Location>
    <Code>TAZ</Code>
    <City>Taylorville</City>
    <State>IL</State>
	</Location>
	<Coordinates>
    <Latitude>39.53</Latitude>
    <Longitude>89.33</Longitude>
	</Coordinates>
  </Airport>
  <Airport>
	<Location>
    <Code>SBY</Code>
    <City>Salisbury</City>
    <State>MD</State>
	</Location>
	<Coordinates>
    <Latitude>38.33</Latitude>
    <Longitude>75.5</Longitude>
	</Coordinates>
  </Airport>
  <Airport>
	<Location>
    <Code>EEW</Code>
    <City>Neenah</City>
    <State>WI</State>
	</Location>
	<Coordinates>
    <Latitude>44.22</Latitude>
    <Longitude>88.53</Longitude>
	</Coordinates>
  </Airport>
  <Airport>
	<Location>
    <Code>RST</Code>
    <City>Rochester</City>
    <State>MN</State>
	</Location>
	<Coordinates>
    <Latitude>43.92</Latitude>
    <Longitude>92.5</Longitude>
	</Coordinates>
  </Airport>
  <Airport>
	<Location>
    <Code>LIZ</Code>
    <City>Loring AFB</City>
    <State>ME</State>
	</Location>
	<Coordinates>
    <Latitude>46.95</Latitude>
    <Longitude>67.88</Longitude>
	</Coordinates>
  </Airport>
  <Airport>
	<Location>
    <Code>MKT</Code>
    <City>Mankato</City>
    <State>MN</State>
	</Location>
	<Coordinates>
    <Latitude>44.22</Latitude>
    <Longitude>93.92</Longitude>
	</Coordinates>
  </Airport>
  <Airport>
	<Location>
    <Code>GWO</Code>
    <City>Greenwood</City>
    <State>MS</State>
	</Location>
	<Coordinates>
    <Latitude>33.5</Latitude>
    <Longitude>90.08</Longitude>
	</Coordinates>
  </Airport>
  <Airport>
	<Location>
    <Code>CTY</Code>
    <City>Cross City</City>
    <State>FL</State>
	</Location>
	<Coordinates>
    <Latitude>29.62</Latitude>
    <Longitude>83.1</Longitude>
	</Coordinates>
  </Airport>
  <Airport>
	<Location>
    <Code>CVS</Code>
    <City>Cannon</City>
    <State>NM</State>
	</Location>
	<Coordinates>
    <Latitude>34.38</Latitude>
    <Longitude>103.32</Longitude>
	</Coordinates>
  </Airport>
  <Airport>
	<Location>
    <Code>PIE</Code>
    <City>Saint Peters</City>
    <State>FL</State>
	</Location>
	<Coordinates>
    <Latitude>27.92</Latitude>
    <Longitude>82.68</Longitude>
	</Coordinates>
  </Airport>
  <Airport>
	<Location>
    <Code>BEH</Code>
    <City>Benton Harbor</City>
    <State>MI</State>
	</Location>
	<Coordinates>
    <Latitude>42.13</Latitude>
    <Longitude>86.43</Longitude>
	</Coordinates>
  </Airport>
  <Airport>
	<Location>
    <Code>RTN</Code>
    <City>Raton</City>
    <State>NM</State>
	</Location>
	<Coordinates>
    <Latitude>36.74</Latitude>
    <Longitude>104.5</Longitude>
	</Coordinates>
  </Airport>
  <Airport>
	<Location>
    <Code>HOP</Code>
    <City>Ft Campbell</City>
    <State>KY</State>
	</Location>
	<Coordinates>
    <Latitude>36.67</Latitude>
    <Longitude>87.5</Longitude>
	</Coordinates>
  </Airport>
  <Airport>
	<Location>
    <Code>JLN</Code>
    <City>Joplin</City>
    <State>MO</State>
	</Location>
	<Coordinates>
    <Latitude>37.17</Latitude>
    <Longitude>94.5</Longitude>
	</Coordinates>
  </Airport>
  <Airport>
	<Location>
    <Code>MWA</Code>
    <City>Marion</City>
    <State>IL</State>
	</Location>
	<Coordinates>
    <Latitude>37.75</Latitude>
    <Longitude>89</Longitude>
	</Coordinates>
  </Airport>
  <Airport>
	<Location>
    <Code>SCK</Code>
    <City>Stockton</City>
    <State>CA</State>
	</Location>
	<Coordinates>
    <Latitude>37.9</Latitude>
    <Longitude>121.25</Longitude>
	</Coordinates>
  </Airport>
  <Airport>
	<Location>
    <Code>DLF</Code>
    <City>Laughlin AFB</City>
    <State>TX</State>
	</Location>
	<Coordinates>
    <Latitude>29.37</Latitude>
    <Longitude>100.78</Longitude>
	</Coordinates>
  </Airport>
  <Airport>
	<Location>
    <Code>SNA</Code>
    <City>Santa Ana</City>
    <State>CA</State>
	</Location>
	<Coordinates>
    <Latitude>33.67</Latitude>
    <Longitude>117.88</Longitude>
	</Coordinates>
  </Airport>
  <Airport>
	<Location>
    <Code>BVE</Code>
    <City>Boothville</City>
    <State>LA</State>
	</Location>
	<Coordinates>
    <Latitude>29.55</Latitude>
    <Longitude>89.67</Longitude>
	</Coordinates>
  </Airport>
  <Airport>
	<Location>
    <Code>MOD</Code>
    <City>Modesto</City>
    <State>CA</State>
	</Location>
	<Coordinates>
    <Latitude>37.63</Latitude>
    <Longitude>120.95</Longitude>
	</Coordinates>
  </Airport>
  <Airport>
	<Location>
    <Code>SSI</Code>
    <City>Brunswick</City>
    <State>GA</State>
	</Location>
	<Coordinates>
    <Latitude>31.15</Latitude>
    <Longitude>81.38</Longitude>
	</Coordinates>
  </Airport>
  <Airport>
	<Location>
    <Code>EMP</Code>
    <City>Emporia</City>
    <State>KS</State>
	</Location>
	<Coordinates>
    <Latitude>38.33</Latitude>
    <Longitude>96.2</Longitude>
	</Coordinates>
  </Airport>
  <Airport>
	<Location>
    <Code>MDT</Code>
    <City>Middletown</City>
    <State>PA</State>
	</Location>
	<Coordinates>
    <Latitude>40.2</Latitude>
    <Longitude>76.77</Longitude>
	</Coordinates>
  </Airport>
  <Airport>
	<Location>
    <Code>ANW</Code>
    <City>Ainsworth</City>
    <State>NE</State>
	</Location>
	<Coordinates>
    <Latitude>42.58</Latitude>
    <Longitude>99.98</Longitude>
	</Coordinates>
  </Airport>
  <Airport>
	<Location>
    <Code>MLI</Code>
    <City>Moline/Quad</City>
    <State>IL</State>
	</Location>
	<Coordinates>
    <Latitude>41.45</Latitude>
    <Longitude>90.52</Longitude>
	</Coordinates>
  </Airport>
  <Airport>
	<Location>
    <Code>SVN</Code>
    <City>Hunter Aaf</City>
    <State>GA</State>
	</Location>
	<Coordinates>
    <Latitude>32.02</Latitude>
    <Longitude>81.15</Longitude>
	</Coordinates>
  </Airport>
  <Airport>
	<Location>
    <Code>GCC</Code>
    <City>Gillette</City>
    <State>WY</State>
	</Location>
	<Coordinates>
    <Latitude>44.35</Latitude>
    <Longitude>105.53</Longitude>
	</Coordinates>
  </Airport>
  <Airport>
	<Location>
    <Code>CHA</Code>
    <City>Chattanooga</City>
    <State>TN</State>
	</Location>
	<Coordinates>
    <Latitude>35.03</Latitude>
    <Longitude>85.2</Longitude>
	</Coordinates>
  </Airport>
  <Airport>
	<Location>
    <Code>FUL</Code>
    <City>Fullerton</City>
    <State>CA</State>
	</Location>
	<Coordinates>
    <Latitude>33.87</Latitude>
    <Longitude>117.97</Longitude>
	</Coordinates>
  </Airport>
  <Airport>
	<Location>
    <Code>ENN</Code>
    <City>Nenana</City>
    <State>AK</State>
	</Location>
	<Coordinates>
    <Latitude>64.55</Latitude>
    <Longitude>149.08</Longitude>
	</Coordinates>
  </Airport>
  <Airport>
	<Location>
    <Code>FLO</Code>
    <City>Florence</City>
    <State>SC</State>
	</Location>
	<Coordinates>
    <Latitude>34.18</Latitude>
    <Longitude>79.72</Longitude>
	</Coordinates>
  </Airport>
  <Airport>
	<Location>
    <Code>ECG</Code>
    <City>Elizabeth</City>
    <State>NC</State>
	</Location>
	<Coordinates>
    <Latitude>36.27</Latitude>
    <Longitude>76.18</Longitude>
	</Coordinates>
  </Airport>
  <Airport>
	<Location>
    <Code>TCC</Code>
    <City>Tucumcari</City>
    <State>NM</State>
	</Location>
	<Coordinates>
    <Latitude>35.18</Latitude>
    <Longitude>103.6</Longitude>
	</Coordinates>
  </Airport>
  <Airport>
	<Location>
    <Code>OTG</Code>
    <City>Worthington</City>
    <State>MN</State>
	</Location>
	<Coordinates>
    <Latitude>43.65</Latitude>
    <Longitude>95.58</Longitude>
	</Coordinates>
  </Airport>
  <Airport>
	<Location>
    <Code>FHU</Code>
    <City>Fort Huachuc</City>
    <State>AZ</State>
	</Location>
	<Coordinates>
    <Latitude>31.6</Latitude>
    <Longitude>110.35</Longitude>
	</Coordinates>
  </Airport>
  <Airport>
	<Location>
    <Code>ADM</Code>
    <City>Ardmore</City>
    <State>OK</State>
	</Location>
	<Coordinates>
    <Latitude>34.3</Latitude>
    <Longitude>97.02</Longitude>
	</Coordinates>
  </Airport>
  <Airport>
	<Location>
    <Code>AHN</Code>
    <City>Athens</City>
    <State>GA</State>
	</Location>
	<Coordinates>
    <Latitude>33.95</Latitude>
    <Longitude>83.32</Longitude>
	</Coordinates>
  </Airport>
  <Airport>
	<Location>
    <Code>VDZ</Code>
    <City>Valdez2</City>
    <State>AK</State>
	</Location>
	<Coordinates>
    <Latitude>61.13</Latitude>
    <Longitude>146.25</Longitude>
	</Coordinates>
  </Airport>
  <Airport>
	<Location>
    <Code>SAN</Code>
    <City>San Diego</City>
    <State>CA</State>
	</Location>
	<Coordinates>
    <Latitude>32.73</Latitude>
    <Longitude>117.17</Longitude>
	</Coordinates>
  </Airport>
  <Airport>
	<Location>
    <Code>MHV</Code>
    <City>Mojave</City>
    <State>CA</State>
	</Location>
	<Coordinates>
    <Latitude>35.05</Latitude>
    <Longitude>118.15</Longitude>
	</Coordinates>
  </Airport>
  <Airport>
	<Location>
    <Code>OJC</Code>
    <City>Olathe</City>
    <State>KS</State>
	</Location>
	<Coordinates>
    <Latitude>38.85</Latitude>
    <Longitude>94.9</Longitude>
	</Coordinates>
  </Airport>
  <Airport>
	<Location>
    <Code>MCN</Code>
    <City>Macon/Lewis</City>
    <State>GA</State>
	</Location>
	<Coordinates>
    <Latitude>32.7</Latitude>
    <Longitude>83.65</Longitude>
	</Coordinates>
  </Airport>
  <Airport>
	<Location>
    <Code>FFZ</Code>
    <City>Falcon Fld</City>
    <State>AZ</State>
	</Location>
	<Coordinates>
    <Latitude>33.47</Latitude>
    <Longitude>111.73</Longitude>
	</Coordinates>
  </Airport>
  <Airport>
	<Location>
    <Code>NKX</Code>
    <City>Miramar NAS</City>
    <State>CA</State>
	</Location>
	<Coordinates>
    <Latitude>32.87</Latitude>
    <Longitude>117.15</Longitude>
	</Coordinates>
  </Airport>
  <Airport>
	<Location>
    <Code>DXR</Code>
    <City>Danbury</City>
    <State>CT</State>
	</Location>
	<Coordinates>
    <Latitude>41.37</Latitude>
    <Longitude>73.48</Longitude>
	</Coordinates>
  </Airport>
  <Airport>
	<Location>
    <Code>AVP</Code>
    <City>Wilkes-Barre</City>
    <State>PA</State>
	</Location>
	<Coordinates>
    <Latitude>41.33</Latitude>
    <Longitude>75.73</Longitude>
	</Coordinates>
  </Airport>
  <Airport>
	<Location>
    <Code>ELY</Code>
    <City>Ely/Yelland</City>
    <State>NV</State>
	</Location>
	<Coordinates>
    <Latitude>39.28</Latitude>
    <Longitude>114.85</Longitude>
	</Coordinates>
  </Airport>
  <Airport>
	<Location>
    <Code>DFW</Code>
    <City>Dallas/FW</City>
    <State>TX</State>
	</Location>
	<Coordinates>
    <Latitude>32.9</Latitude>
    <Longitude>97.03</Longitude>
	</Coordinates>
  </Airport>
  <Airport>
	<Location>
    <Code>SUN</Code>
    <City>Sun Valley</City>
    <State>ID</State>
	</Location>
	<Coordinates>
    <Latitude>43.5</Latitude>
    <Longitude>114.3</Longitude>
	</Coordinates>
  </Airport>
  <Airport>
	<Location>
    <Code>CNU</Code>
    <City>Chanute</City>
    <State>KS</State>
	</Location>
	<Coordinates>
    <Latitude>37.67</Latitude>
    <Longitude>95.48</Longitude>
	</Coordinates>
  </Airport>
  <Airport>
	<Location>
    <Code>HFD</Code>
    <City>Hartford</City>
    <State>CT</State>
	</Location>
	<Coordinates>
    <Latitude>41.73</Latitude>
    <Longitude>72.65</Longitude>
	</Coordinates>
  </Airport>
  <Airport>
	<Location>
    <Code>CLT</Code>
    <City>Charlotte</City>
    <State>NC</State>
	</Location>
	<Coordinates>
    <Latitude>35.22</Latitude>
    <Longitude>80.93</Longitude>
	</Coordinates>
  </Airport>
  <Airport>
	<Location>
    <Code>LCK</Code>
    <City>Rickenbacker</City>
    <State>OH</State>
	</Location>
	<Coordinates>
    <Latitude>39.82</Latitude>
    <Longitude>82.93</Longitude>
	</Coordinates>
  </Airport>
  <Airport>
	<Location>
    <Code>UNI</Code>
    <City>Athens/Albany</City>
    <State>OH</State>
	</Location>
	<Coordinates>
    <Latitude>39.21</Latitude>
    <Longitude>82.23</Longitude>
	</Coordinates>
  </Airport>
  <Airport>
	<Location>
    <Code>NZJ</Code>
    <City>El Toro</City>
    <State>CA</State>
	</Location>
	<Coordinates>
    <Latitude>33.67</Latitude>
    <Longitude>117.73</Longitude>
	</Coordinates>
  </Airport>
  <Airport>
	<Location>
    <Code>MWN</Code>
    <City>Mt Washingtn</City>
    <State>NH</State>
	</Location>
	<Coordinates>
    <Latitude>44.27</Latitude>
    <Longitude>71.3</Longitude>
	</Coordinates>
  </Airport>
  <Airport>
	<Location>
    <Code>AGR</Code>
    <City>Avon Park G</City>
    <State>FL</State>
	</Location>
	<Coordinates>
    <Latitude>28.08</Latitude>
    <Longitude>81.55</Longitude>
	</Coordinates>
  </Airport>
  <Airport>
	<Location>
    <Code>MGE</Code>
    <City>Dobbins AFB</City>
    <State>GA</State>
	</Location>
	<Coordinates>
    <Latitude>33.92</Latitude>
    <Longitude>84.52</Longitude>
	</Coordinates>
  </Airport>
  <Airport>
	<Location>
    <Code>SBP</Code>
    <City>San Luis Obispo</City>
    <State>CA</State>
	</Location>
	<Coordinates>
    <Latitude>35.23</Latitude>
    <Longitude>120.65</Longitude>
	</Coordinates>
  </Airport>
  <Airport>
	<Location>
    <Code>BKX</Code>
    <City>Brookings</City>
    <State>SD</State>
	</Location>
	<Coordinates>
    <Latitude>44.3</Latitude>
    <Longitude>96.8</Longitude>
	</Coordinates>
  </Airport>
  <Airport>
	<Location>
    <Code>OTZ</Code>
    <City>Kotzebue</City>
    <State>AK</State>
	</Location>
	<Coordinates>
    <Latitude>66.87</Latitude>
    <Longitude>162.63</Longitude>
	</Coordinates>
  </Airport>
  <Airport>
	<Location>
    <Code>TUS</Code>
    <City>Tucson</City>
    <State>AZ</State>
	</Location>
	<Coordinates>
    <Latitude>32.12</Latitude>
    <Longitude>110.93</Longitude>
	</Coordinates>
  </Airport>
  <Airport>
	<Location>
    <Code>ERV</Code>
    <City>Kerrville</City>
    <State>TX</State>
	</Location>
	<Coordinates>
    <Latitude>29.98</Latitude>
    <Longitude>99.08</Longitude>
	</Coordinates>
  </Airport>
  <Airport>
	<Location>
    <Code>IXD</Code>
    <City>Johnson Cnty</City>
    <State>KS</State>
	</Location>
	<Coordinates>
    <Latitude>38.82</Latitude>
    <Longitude>94.88</Longitude>
	</Coordinates>
  </Airport>
  <Airport>
	<Location>
    <Code>PRC</Code>
    <City>Prescott</City>
    <State>AZ</State>
	</Location>
	<Coordinates>
    <Latitude>34.65</Latitude>
    <Longitude>112.43</Longitude>
	</Coordinates>
  </Airport>
  <Airport>
	<Location>
    <Code>MVY</Code>
    <City>Marthas Vine</City>
    <State>MA</State>
	</Location>
	<Coordinates>
    <Latitude>41.4</Latitude>
    <Longitude>70.62</Longitude>
	</Coordinates>
  </Airport>
  <Airport>
	<Location>
    <Code>MDO</Code>
    <City>Middleton Is</City>
    <State>AK</State>
	</Location>
	<Coordinates>
    <Latitude>59.43</Latitude>
    <Longitude>146.33</Longitude>
	</Coordinates>
  </Airport>
  <Airport>
	<Location>
    <Code>LAX</Code>
    <City>Los Angeles</City>
    <State>CA</State>
	</Location>
	<Coordinates>
    <Latitude>33.93</Latitude>
    <Longitude>118.4</Longitude>
	</Coordinates>
  </Airport>
  <Airport>
	<Location>
    <Code>EFD</Code>
    <City>Ellington Af</City>
    <State>TX</State>
	</Location>
	<Coordinates>
    <Latitude>29.62</Latitude>
    <Longitude>95.17</Longitude>
	</Coordinates>
  </Airport>
  <Airport>
	<Location>
    <Code>EWR</Code>
    <City>Newark Liberty International</City>
    <State>NJ</State>
	</Location>
	<Coordinates>
    <Latitude>40.7</Latitude>
    <Longitude>74.17</Longitude>
	</Coordinates>
  </Airport>
  <Airport>
	<Location>
    <Code>GNV</Code>
    <City>Gainesville</City>
    <State>FL</State>
	</Location>
	<Coordinates>
    <Latitude>29.68</Latitude>
    <Longitude>82.27</Longitude>
	</Coordinates>
  </Airport>
  <Airport>
	<Location>
    <Code>EYW</Code>
    <City>Key West</City>
    <State>FL</State>
	</Location>
	<Coordinates>
    <Latitude>24.55</Latitude>
    <Longitude>81.75</Longitude>
	</Coordinates>
  </Airport>
  <Airport>
	<Location>
    <Code>BJI</Code>
    <City>Bemidji Muni</City>
    <State>MN</State>
	</Location>
	<Coordinates>
    <Latitude>47.5</Latitude>
    <Longitude>94.93</Longitude>
	</Coordinates>
  </Airport>
  <Airport>
	<Location>
    <Code>TIX</Code>
    <City>Titusville</City>
    <State>FL</State>
	</Location>
	<Coordinates>
    <Latitude>28.52</Latitude>
    <Longitude>80.8</Longitude>
	</Coordinates>
  </Airport>
  <Airport>
	<Location>
    <Code>SAW</Code>
    <City>Sawyer AFB</City>
    <State>MI</State>
	</Location>
	<Coordinates>
    <Latitude>46.35</Latitude>
    <Longitude>87.4</Longitude>
	</Coordinates>
  </Airport>
  <Airport>
	<Location>
    <Code>FNT</Code>
    <City>Flint/Bishop</City>
    <State>MI</State>
	</Location>
	<Coordinates>
    <Latitude>42.97</Latitude>
    <Longitude>83.75</Longitude>
	</Coordinates>
  </Airport>
  <Airport>
	<Location>
    <Code>FYV</Code>
    <City>Fayetteville</City>
    <State>AR</State>
	</Location>
	<Coordinates>
    <Latitude>36</Latitude>
    <Longitude>94.17</Longitude>
	</Coordinates>
  </Airport>
  <Airport>
	<Location>
    <Code>BWG</Code>
    <City>Bowling Green</City>
    <State>KY</State>
	</Location>
	<Coordinates>
    <Latitude>36.97</Latitude>
    <Longitude>86.43</Longitude>
	</Coordinates>
  </Airport>
  <Airport>
	<Location>
    <Code>OXR</Code>
    <City>Oxnard</City>
    <State>CA</State>
	</Location>
	<Coordinates>
    <Latitude>34.2</Latitude>
    <Longitude>119.2</Longitude>
	</Coordinates>
  </Airport>
  <Airport>
	<Location>
    <Code>FMN</Code>
    <City>Farmington</City>
    <State>NM</State>
	</Location>
	<Coordinates>
    <Latitude>36.75</Latitude>
    <Longitude>108.23</Longitude>
	</Coordinates>
  </Airport>
  <Airport>
	<Location>
    <Code>LTS</Code>
    <City>Altus AFB</City>
    <State>OK</State>
	</Location>
	<Coordinates>
    <Latitude>34.67</Latitude>
    <Longitude>99.27</Longitude>
	</Coordinates>
  </Airport>
  <Airport>
	<Location>
    <Code>DHN</Code>
    <City>Dothan</City>
    <State>AL</State>
	</Location>
	<Coordinates>
    <Latitude>31.32</Latitude>
    <Longitude>85.45</Longitude>
	</Coordinates>
  </Airport>
  <Airport>
	<Location>
    <Code>SEP</Code>
    <City>Stephenville</City>
    <State>TX</State>
	</Location>
	<Coordinates>
    <Latitude>32.22</Latitude>
    <Longitude>98.18</Longitude>
	</Coordinates>
  </Airport>
  <Airport>
	<Location>
    <Code>MML</Code>
    <City>Marshall Arpt</City>
    <State>MN</State>
	</Location>
	<Coordinates>
    <Latitude>44.45</Latitude>
    <Longitude>95.82</Longitude>
	</Coordinates>
  </Airport>
  <Airport>
	<Location>
    <Code>MCF</Code>
    <City>Macdill AFB</City>
    <State>FL</State>
	</Location>
	<Coordinates>
    <Latitude>27.85</Latitude>
    <Longitude>82.52</Longitude>
	</Coordinates>
  </Airport>
  <Airport>
	<Location>
    <Code>LWB</Code>
    <City>Lewisburg</City>
    <State>WV</State>
	</Location>
	<Coordinates>
    <Latitude>37.87</Latitude>
    <Longitude>80.4</Longitude>
	</Coordinates>
  </Airport>
  <Airport>
	<Location>
    <Code>MFR</Code>
    <City>Medford</City>
    <State>OR</State>
	</Location>
	<Coordinates>
    <Latitude>42.37</Latitude>
    <Longitude>122.87</Longitude>
	</Coordinates>
  </Airport>
  <Airport>
	<Location>
    <Code>MIE</Code>
    <City>Muncie</City>
    <State>IN</State>
	</Location>
	<Coordinates>
    <Latitude>40.23</Latitude>
    <Longitude>85.38</Longitude>
	</Coordinates>
  </Airport>
  <Airport>
	<Location>
    <Code>WEY</Code>
    <City>WYellowston</City>
    <State>MT</State>
	</Location>
	<Coordinates>
    <Latitude>44.65</Latitude>
    <Longitude>111.1</Longitude>
	</Coordinates>
  </Airport>
  <Airport>
	<Location>
    <Code>ARA</Code>
    <City>New Iberia</City>
    <State>LA</State>
	</Location>
	<Coordinates>
    <Latitude>30.03</Latitude>
    <Longitude>91.88</Longitude>
	</Coordinates>
  </Airport>
  <Airport>
	<Location>
    <Code>MTO</Code>
    <City>Mattoon</City>
    <State>IL</State>
	</Location>
	<Coordinates>
    <Latitude>39.48</Latitude>
    <Longitude>88.28</Longitude>
	</Coordinates>
  </Airport>
  <Airport>
	<Location>
    <Code>PTI</Code>
    <City>Puntilla</City>
    <State>AK</State>
	</Location>
	<Coordinates>
    <Latitude>62.17</Latitude>
    <Longitude>153.25</Longitude>
	</Coordinates>
  </Airport>
  <Airport>
	<Location>
    <Code>CDW</Code>
    <City>Fairfield</City>
    <State>NJ</State>
	</Location>
	<Coordinates>
    <Latitude>40.87</Latitude>
    <Longitude>74.28</Longitude>
	</Coordinates>
  </Airport>
  <Airport>
	<Location>
    <Code>ELO</Code>
    <City>Ely</City>
    <State>MN</State>
	</Location>
	<Coordinates>
    <Latitude>47.9</Latitude>
    <Longitude>91.82</Longitude>
	</Coordinates>
  </Airport>
  <Airport>
	<Location>
    <Code>ADW</Code>
    <City>Andrews AFB</City>
    <State>MD</State>
	</Location>
	<Coordinates>
    <Latitude>38.82</Latitude>
    <Longitude>76.87</Longitude>
	</Coordinates>
  </Airport>
  <Airport>
	<Location>
    <Code>MCB</Code>
    <City>Mccomb</City>
    <State>MS</State>
	</Location>
	<Coordinates>
    <Latitude>31.18</Latitude>
    <Longitude>90.47</Longitude>
	</Coordinates>
  </Airport>
  <Airport>
	<Location>
    <Code>CGX</Code>
    <City>Chicago/Meigs</City>
    <State>IL</State>
	</Location>
	<Coordinates>
    <Latitude>41.87</Latitude>
    <Longitude>87.62</Longitude>
	</Coordinates>
  </Airport>
  <Airport>
	<Location>
    <Code>EEN</Code>
    <City>Keene</City>
    <State>NH</State>
	</Location>
	<Coordinates>
    <Latitude>42.9</Latitude>
    <Longitude>72.27</Longitude>
	</Coordinates>
  </Airport>
  <Airport>
	<Location>
    <Code>PPC</Code>
    <City>Prospect Crk</City>
    <State>AK</State>
	</Location>
	<Coordinates>
    <Latitude>66.82</Latitude>
    <Longitude>150.65</Longitude>
	</Coordinates>
  </Airport>
  <Airport>
	<Location>
    <Code>NIR</Code>
    <City>Chase NAS</City>
    <State>TX</State>
	</Location>
	<Coordinates>
    <Latitude>28.37</Latitude>
    <Longitude>97.67</Longitude>
	</Coordinates>
  </Airport>
  <Airport>
	<Location>
    <Code>BMI</Code>
    <City>Bloomington</City>
    <State>IL</State>
	</Location>
	<Coordinates>
    <Latitude>40.48</Latitude>
    <Longitude>88.93</Longitude>
	</Coordinates>
  </Airport>
  <Airport>
	<Location>
    <Code>HVR</Code>
    <City>Havre</City>
    <State>MT</State>
	</Location>
	<Coordinates>
    <Latitude>48.55</Latitude>
    <Longitude>109.77</Longitude>
	</Coordinates>
  </Airport>
  <Airport>
	<Location>
    <Code>OLU</Code>
    <City>Columbus</City>
    <State>NE</State>
	</Location>
	<Coordinates>
    <Latitude>41.45</Latitude>
    <Longitude>97.35</Longitude>
	</Coordinates>
  </Airport>
  <Airport>
	<Location>
    <Code>AUI</Code>
    <City>Austin</City>
    <State>NV</State>
	</Location>
	<Coordinates>
    <Latitude>39.83</Latitude>
    <Longitude>117.13</Longitude>
	</Coordinates>
  </Airport>
  <Airport>
	<Location>
    <Code>KOA</Code>
    <City>Ke-Ahole/Kon</City>
    <State>HI</State>
	</Location>
	<Coordinates>
    <Latitude>19.75</Latitude>
    <Longitude>156.05</Longitude>
	</Coordinates>
  </Airport>
  <Airport>
	<Location>
    <Code>PHF</Code>
    <City>Newport News</City>
    <State>VA</State>
	</Location>
	<Coordinates>
    <Latitude>37.13</Latitude>
    <Longitude>76.5</Longitude>
	</Coordinates>
  </Airport>
  <Airport>
	<Location>
    <Code>WYS</Code>
    <City>WYellowston</City>
    <State>MT</State>
	</Location>
	<Coordinates>
    <Latitude>44.68</Latitude>
    <Longitude>111.12</Longitude>
	</Coordinates>
  </Airport>
  <Airport>
	<Location>
    <Code>MKO</Code>
    <City>Muskogee</City>
    <State>MO</State>
	</Location>
	<Coordinates>
    <Latitude>35.66</Latitude>
    <Longitude>95.36</Longitude>
	</Coordinates>
  </Airport>
  <Airport>
	<Location>
    <Code>BKW</Code>
    <City>Beckley</City>
    <State>WV</State>
	</Location>
	<Coordinates>
    <Latitude>37.78</Latitude>
    <Longitude>81.12</Longitude>
	</Coordinates>
  </Airport>
  <Airport>
	<Location>
    <Code>MYL</Code>
    <City>Mccall</City>
    <State>ID</State>
	</Location>
	<Coordinates>
    <Latitude>44.88</Latitude>
    <Longitude>116.1</Longitude>
	</Coordinates>
  </Airport>
  <Airport>
	<Location>
    <Code>HEZ</Code>
    <City>Natchez</City>
    <State>MS</State>
	</Location>
	<Coordinates>
    <Latitude>31.62</Latitude>
    <Longitude>91.25</Longitude>
	</Coordinates>
  </Airport>
  <Airport>
	<Location>
    <Code>GKN</Code>
    <City>Gulkana Arpt</City>
    <State>AK</State>
	</Location>
	<Coordinates>
    <Latitude>62.15</Latitude>
    <Longitude>145.45</Longitude>
	</Coordinates>
  </Airport>
  <Airport>
	<Location>
    <Code>MVN</Code>
    <City>Mount Vernon</City>
    <State>IL</State>
	</Location>
	<Coordinates>
    <Latitude>38.32</Latitude>
    <Longitude>88.86</Longitude>
	</Coordinates>
  </Airport>
  <Airport>
	<Location>
    <Code>BZN</Code>
    <City>Bozeman</City>
    <State>MT</State>
	</Location>
	<Coordinates>
    <Latitude>45.78</Latitude>
    <Longitude>111.15</Longitude>
	</Coordinates>
  </Airport>
  <Airport>
	<Location>
    <Code>EAR</Code>
    <City>Kearney</City>
    <State>NE</State>
	</Location>
	<Coordinates>
    <Latitude>40.73</Latitude>
    <Longitude>99</Longitude>
	</Coordinates>
  </Airport>
  <Airport>
	<Location>
    <Code>FRG</Code>
    <City>Farmingdale</City>
    <State>NY</State>
	</Location>
	<Coordinates>
    <Latitude>40.73</Latitude>
    <Longitude>73.43</Longitude>
	</Coordinates>
  </Airport>
  <Airport>
	<Location>
    <Code>MXF</Code>
    <City>Maxwell AFB</City>
    <State>AL</State>
	</Location>
	<Coordinates>
